Marker,ConditionCode,TimeMS,Size,ChanNum,RT,PrevCondition1,PrevCondition2,SubjID
Mk3,221,13931,1,0,541,201,,S101
Mk6,220,15503,1,0,534,207,  4,S101
Mk9,220,17077,1,0,541,201,  2,S101
Mk12,221,19411,1,0,546,208, 17,S101
Mk15,221,21033,1,0,559,203,  2,S101
Mk18,221,22545,1,0,550,205, 13,S101
Mk21,221,24944,1,0,553,204,  4,S101
Mk24,220,26533,1,0,542,202,  7,S101
Mk27,221,28115,1,0,540,208, 24,S101
Mk30,221,30403,1,0,541,208, 29,S101
Mk33,220,31877,1,0,540,202,  8,S101
Mk36,221,33441,1,0,541,204, 41,S101
Mk39,220,35737,1,0,541,202, 15,S101
Mk42,221,37369,1,0,539,204,  9,S101
Mk45,221,38913,1,0,554,208, 20,S101
Mk48,221,41188,1,0,541,208, 39,S101
Mk51,221,42724,1,0,540,203,  3,S101
Mk54,220,44250,1,0,540,202, 14,S101
Mk57,220,46592,1,0,554,207, 25,S101
Mk60,221,48155,1,0,558,203,  5,S101
Mk63,220,49694,1,0,538,203, 16,S101
Mk66,221,51963,1,0,541,206,  3,S101
Mk69,220,53554,1,0,552,201, 12,S101
Mk72,221,55170,1,0,539,204, 19,S101
Mk75,220,57537,1,0,564,201,  4,S101
Mk78,220,59011,1,0,542,205, 15,S101
Mk81,220,60610,1,0,549,207, 25,S101
Mk84,221,62885,1,0,540,206, 50,S101
Mk87,221,64483,1,0,542,204,  5,S101
Mk90,221,66061,1,0,549,204,  9,S101
Mk93,221,68339,1,0,540,205, 25,S101
Mk96,221,69916,1,0,554,208, 17,S101
Mk99,220,71471,1,0,542,201, 37,S101
Mk102,221,73744,1,0,540,205, 13,S101
Mk105,221,75342,1,0,542,205,  6,S101
Mk108,220,76849,1,0,541,208, 11,S101
Mk111,221,79230,1,0,551,206, 45,S101
Mk114,220,80710,1,0,543,202, 20,S101
Mk117,220,82334,1,0,541,202, 20,S101
Mk120,221,84654,1,0,541,206, 21,S101
Mk123,221,86208,1,0,540,206,  8,S101
Mk126,221,87725,1,0,541,202, 25,S101
Mk129,220,90013,1,0,558,201, 11,S101
Mk132,220,91604,1,0,540,207,  7,S101
Mk135,220,93132,1,0,543,201, 24,S101
Mk138,220,95479,1,0,540,202,  6,S101
Mk141,221,97076,1,0,545,203, 15,S101
Mk144,221,98624,1,0,539,206, 21,S101
Mk147,221,100971,1,0,543,208,  2,S101
Mk150,220,102518,1,0,549,202, 47,S101
Mk153,220,104127,1,0,545,207, 44,S101
Mk156,221,106460,1,0,540,208, 14,S101
Mk159,220,107981,1,0,545,202, 22,S101
Mk162,220,109526,1,0,543,206, 39,S101
Mk165,220,111894,1,0,557,205, 23,S101
Mk168,220,113419,1,0,549,202,  2,S101
Mk171,220,114988,1,0,542,208,  3,S101
Mk174,220,117358,1,0,542,208, 26,S101
Mk177,220,118856,1,0,544,208,  9,S101
Mk180,220,120479,1,0,562,208, 28,S101
Mk183,220,122720,1,0,540,206, 49,S101
Mk186,220,124258,1,0,541,201, 21,S101
Mk189,220,125779,1,0,541,208, 36,S101
Mk192,220,128157,1,0,544,201, 17,S101
Mk195,220,129655,1,0,545,201, 16,S101
Mk198,220,131248,1,0,542,201, 39,S101
Mk201,220,133587,1,0,540,207, 10,S101
Mk204,220,135259,1,0,549,207, 19,S101
Mk207,220,136788,1,0,540,205, 15,S101
Mk210,221,139079,1,0,539,208, 12,S101
Mk213,221,140555,1,0,540,208, 19,S101
Mk216,220,142138,1,0,540,202, 15,S101
Mk219,220,144448,1,0,541,202, 18,S101
Mk222,220,145956,1,0,541,205, 38,S101
Mk225,220,147542,1,0,539,204, 13,S101
Mk228,220,175703,1,0,555,207, 18,S101
Mk231,220,177178,1,0,539,201, 44,S101
Mk234,220,178700,1,0,552,208, 26,S101
Mk237,220,181090,1,0,559,201, 10,S101
Mk240,220,182651,1,0,549,208,  1,S101
Mk243,221,184183,1,0,552,208, 40,S101
Mk246,220,186504,1,0,548,202, 41,S101
Mk249,220,188013,1,0,539,207, 27,S101
Mk252,220,189566,1,0,555,201, 36,S101
Mk255,221,191863,1,0,539,204, 31,S101
Mk258,220,193409,1,0,539,202, 17,S101
Mk261,220,195057,1,0,541,201, 35,S101
Mk264,220,197319,1,0,549,202, 38,S101
Mk267,221,198825,1,0,559,204, 49,S101
Mk270,220,200355,1,0,547,205,  2,S101
Mk273,220,202610,1,0,548,208, 23,S101
Mk276,221,204163,1,0,542,208, 31,S101
Mk279,220,205774,1,0,553,207,  7,S101
Mk282,220,208066,1,0,553,202, 40,S101
Mk285,220,209536,1,0,539,207, 50,S101
Mk288,220,211170,1,0,544,208,  1,S101
Mk291,221,213520,1,0,548,204, 50,S101
Mk294,221,215158,1,0,540,206,  3,S101
Mk297,220,216702,1,0,542,207, 17,S101
Mk300,220,219010,1,0,554,208, 13,S101
Mk303,220,220539,1,0,554,207, 30,S101
Mk306,220,222132,1,0,543,207, 16,S101
Mk309,221,224397,1,0,545,206, 10,S101
Mk312,220,225973,1,0,541,203, 24,S101
Mk315,220,227442,1,0,544,201,  8,S101
Mk318,220,229817,1,0,539,202, 48,S101
Mk321,221,231335,1,0,541,207, 17,S101
Mk324,220,232933,1,0,538,207, 23,S101
Mk327,220,235272,1,0,544,208, 26,S101
Mk330,220,236808,1,0,538,201, 36,S101
Mk333,220,238363,1,0,539,201, 20,S101
Mk336,220,240756,1,0,544,201, 30,S101
Mk339,220,242261,1,0,544,202, 37,S101
Mk342,221,243754,1,0,550,208, 34,S101
Mk345,220,246129,1,0,550,206, 46,S101
Mk348,221,247700,1,0,550,204,  7,S101
Mk351,220,249266,1,0,545,208, 22,S101
Mk354,220,251577,1,0,543,207, 48,S101
Mk357,221,253137,1,0,544,204, 29,S101
Mk360,220,254676,1,0,546,207, 13,S101
Mk363,220,256941,1,0,544,206, 22,S101
Mk366,220,258501,1,0,550,202,  6,S101
Mk369,220,260063,1,0,549,205,  6,S101
Mk372,220,262408,1,0,539,202,  5,S101
Mk375,220,264028,1,0,539,201, 40,S101
Mk378,220,265601,1,0,545,201, 14,S101
Mk381,220,267946,1,0,556,202, 46,S101
Mk384,220,269463,1,0,540,201, 13,S101
Mk387,220,270944,1,0,537,207, 24,S101
Mk390,220,273262,1,0,538,201, 17,S101
Mk393,221,274762,1,0,538,204, 18,S101
Mk396,220,276301,1,0,540,206, 19,S101
Mk399,220,278635,1,0,544,201,  9,S101
Mk402,220,280164,1,0,548,201, 29,S101
Mk405,220,281742,1,0,542,204, 21,S101
Mk408,221,284097,1,0,543,204, 10,S101
Mk411,220,285571,1,0,546,208, 16,S101
Mk414,220,287097,1,0,543,207, 42,S101
Mk417,220,289438,1,0,550,203, 21,S101
Mk420,221,290940,1,0,539,204,  6,S101
Mk423,220,292520,1,0,540,207, 24,S101
Mk426,220,294852,1,0,543,201,  9,S101
Mk429,220,296439,1,0,551,207, 50,S101
Mk432,220,297956,1,0,542,201, 30,S101
Mk435,220,300344,1,0,543,208,  2,S101
Mk438,221,301985,1,0,554,203, 21,S101
Mk441,220,303508,1,0,540,201,  2,S101
Mk444,220,305789,1,0,546,207, 27,S101
Mk447,221,307295,1,0,535,206, 48,S101
Mk450,220,308862,1,0,539,202, 22,S101
Mk453,220,386382,1,0,543,202, 19,S101
Mk456,220,387972,1,0,541,206, 16,S101
Mk459,220,389566,1,0,539,208, 18,S101
Mk462,220,391887,1,0,539,207, 14,S101
Mk465,221,393515,1,0,550,208, 20,S101
Mk468,220,395070,1,0,551,205, 38,S101
Mk471,220,397441,1,0,564,202, 16,S101
Mk474,221,399036,1,0,542,201, 10,S101
Mk477,221,400520,1,0,534,204, 25,S101
Mk480,220,402793,1,0,540,208,  1,S101
Mk483,221,404372,1,0,540,206, 18,S101
Mk486,221,405936,1,0,553,205, 10,S101
Mk489,221,408237,1,0,542,201, 19,S101
Mk492,221,409782,1,0,545,208, 42,S101
Mk495,220,411390,1,0,544,207, 24,S101
Mk498,220,413666,1,0,541,208, 46,S101
Mk501,220,415257,1,0,540,202, 43,S101
Mk504,220,416770,1,0,545,207, 22,S101
Mk507,221,419036,1,0,544,204,  7,S101
Mk510,221,420689,1,0,542,204, 14,S101
Mk513,220,422232,1,0,539,203, 23,S101
Mk516,221,424570,1,0,544,203, 25,S101
Mk519,220,426162,1,0,540,202, 15,S101
Mk522,221,427794,1,0,539,205, 33,S101
Mk525,221,430156,1,0,538,205, 15,S101
Mk528,221,431725,1,0,548,205,  1,S101
Mk531,220,433210,1,0,550,207, 22,S101
Mk534,220,435506,1,0,541,207, 12,S101
Mk537,220,436995,1,0,539,207, 37,S101
Mk540,220,438559,1,0,565,203, 34,S101
Mk543,221,440877,1,0,541,206,  4,S101
Mk546,220,442438,1,0,539,205, 14,S101
Mk549,220,444010,1,0,545,208, 14,S101
Mk552,221,446307,1,0,541,206, 34,S101
Mk555,220,447844,1,0,540,201,  1,S101
Mk558,220,449373,1,0,540,202,  3,S101
Mk561,220,451783,1,0,563,208, 30,S101
Mk564,221,453316,1,0,541,208, 44,S101
Mk567,221,454851,1,0,551,203, 11,S101
Mk570,221,457093,1,0,539,203,  1,S101
Mk573,220,458695,1,0,553,208, 24,S101
Mk576,220,460278,1,0,540,208,  1,S101
Mk579,221,462551,1,0,546,205, 23,S101
Mk582,221,464083,1,0,541,203,  9,S101
Mk585,221,465671,1,0,549,203, 11,S101
Mk588,220,467939,1,0,542,201, 12,S101
Mk591,221,469515,1,0,564,208, 34,S101
Mk594,221,471071,1,0,545,206, 20,S101
Mk597,221,473371,1,0,540,204,  4,S101
Mk600,221,474955,1,0,546,207, 11,S101
Mk603,221,476465,1,0,542,202, 43,S101
Mk606,220,478776,1,0,553,206, 28,S101
Mk609,220,480327,1,0,541,201, 11,S101
Mk612,220,481855,1,0,544,208, 28,S101
Mk615,220,484152,1,0,541,202, 12,S101
Mk618,220,485726,1,0,544,201, 45,S101
Mk621,220,487347,1,0,540,201, 12,S101
Mk624,220,489614,1,0,540,202, 22,S101
Mk627,220,491202,1,0,540,202,  7,S101
Mk630,220,492814,1,0,548,201, 29,S101
Mk633,220,495179,1,0,550,207, 23,S101
Mk636,220,496767,1,0,542,202,  8,S101
Mk639,220,498380,1,0,555,207,  8,S101
Mk642,221,500669,1,0,556,207,  6,S101
Mk645,221,502251,1,0,542,208,  4,S101
Mk648,220,503812,1,0,549,201, 27,S101
Mk651,221,506158,1,0,540,203, 43,S101
Mk654,221,507679,1,0,553,203, 19,S101
Mk657,220,509275,1,0,545,202, 17,S101
Mk660,220,511647,1,0,542,205,  1,S101
Mk663,221,513148,1,0,542,208,  7,S101
Mk666,221,514657,1,0,539,203, 16,S101
Mk669,220,517013,1,0,549,202,  9,S101
Mk672,220,518538,1,0,540,208, 43,S101
Mk675,221,520136,1,0,547,202, 33,S101
Mk678,221,522461,1,0,546,206,  2,S101
Mk681,221,524059,1,0,540,204, 13,S101
Mk684,220,525652,1,0,549,202, 21,S101
Mk687,220,527980,1,0,544,207, 48,S101
Mk690,220,529496,1,0,543,207, 28,S101
Mk693,220,531001,1,0,539,201, 47,S101
Mk696,220,533303,1,0,541,201, 41,S101
Mk699,220,534878,1,0,549,202, 45,S101
Mk702,220,536383,1,0,542,202, 46,S101
Mk705,220,538728,1,0,541,207, 42,S101
Mk708,221,540303,1,0,541,208, 11,S101
Mk711,220,541804,1,0,558,207, 25,S101
Mk714,220,544083,1,0,549,202, 45,S101
Mk717,220,545668,1,0,543,201, 36,S101
Mk720,221,547244,1,0,539,208, 32,S101
Mk723,221,549536,1,0,539,208, 35,S101
Mk726,221,551086,1,0,556,205,  6,S101
Mk729,220,552649,1,0,552,201, 10,S101
Mk732,220,554997,1,0,546,207,  8,S101
Mk735,220,556588,1,0,532,204, 18,S101
Mk738,220,558200,1,0,540,202,  5,S101
Mk741,221,560548,1,0,542,208, 26,S101
Mk744,220,562136,1,0,542,207, 32,S101
Mk747,221,563636,1,0,546,205, 35,S101
Mk750,220,565947,1,0,540,201,  3,S101
Mk753,221,567552,1,0,541,203,  5,S101
Mk756,220,569114,1,0,553,208, 20,S101
Mk759,220,571435,1,0,549,207, 13,S101
Mk762,221,572952,1,0,541,201, 32,S101
Mk765,220,574473,1,0,541,205, 47,S101
Mk768,220,576769,1,0,541,203, 24,S101
Mk771,220,578269,1,0,540,202, 23,S101
Mk774,220,579837,1,0,542,201, 23,S101
Mk777,220,582153,1,0,541,207, 49,S101
Mk780,220,583694,1,0,540,201, 42,S101
Mk783,220,585281,1,0,543,201,  9,S101
Mk786,220,587536,1,0,556,202, 40,S101
Mk789,220,589129,1,0,541,201, 31,S101
Mk792,220,590680,1,0,550,202, 44,S101
Mk795,221,593038,1,0,541,204, 37,S101
Mk798,220,594605,1,0,542,207,  8,S101
Mk801,221,596106,1,0,542,203, 38,S101
Mk804,220,598449,1,0,556,207, 18,S101
Mk807,220,599988,1,0,540,207, 33,S101
Mk810,220,601569,1,0,555,207, 31,S101
Mk813,220,603911,1,0,538,202, 25,S101
Mk816,220,605474,1,0,559,202, 32,S101
Mk819,220,607022,1,0,540,208,  4,S101
Mk822,220,609292,1,0,544,205,  4,S101
Mk825,221,610902,1,0,558,205, 20,S101
Mk828,220,612543,1,0,540,202, 18,S101
Mk831,221,614967,1,0,560,203,  5,S101
Mk834,220,616581,1,0,548,207, 22,S101
Mk837,220,618188,1,0,555,207, 39,S101
Mk840,221,620477,1,0,544,204, 41,S101
Mk843,220,621982,1,0,541,207,  6,S101
Mk846,220,623534,1,0,559,202, 49,S101
Mk849,221,625869,1,0,540,203, 14,S101
Mk852,220,627461,1,0,540,207,  7,S101
Mk855,220,629011,1,0,540,203,  3,S101
Mk858,221,631305,1,0,559,204, 10,S101
Mk861,220,632816,1,0,540,201, 12,S101
Mk864,221,634438,1,0,541,208, 11,S101
Mk867,220,636833,1,0,540,201,  5,S101
Mk870,220,638373,1,0,547,206, 35,S101
Mk873,220,639871,1,0,540,205, 15,S101
Mk876,220,642217,1,0,549,207, 21,S101
Mk879,220,643714,1,0,541,206, 27,S101
Mk882,221,645280,1,0,557,203, 16,S101
Mk885,220,647585,1,0,541,202,  5,S101
Mk888,220,649143,1,0,541,201, 47,S101
Mk891,221,650732,1,0,555,205, 33,S101
Mk894,221,653008,1,0,543,206,  8,S101
Mk897,221,654540,1,0,541,206, 19,S101
Mk900,220,656066,1,0,542,202,  3,S101
Mk3,221,203479,1,0,551,208,,S104
Mk6,221,205027,1,0,545,203, 47,S104
Mk9,220,206602,1,0,540,207,  4,S104
Mk12,220,208911,1,0,549,204, 49,S104
Mk15,220,210458,1,0,537,202, 11,S104
Mk18,220,212061,1,0,544,202,  8,S104
Mk21,221,214407,1,0,540,208, 26,S104
Mk24,220,215935,1,0,560,207,  6,S104
Mk27,220,217452,1,0,539,208, 38,S104
Mk30,220,219807,1,0,540,207, 24,S104
Mk33,220,221398,1,0,551,201, 42,S104
Mk36,220,222980,1,0,546,202, 33,S104
Mk39,220,225357,1,0,539,201, 36,S104
Mk42,220,226951,1,0,541,201, 48,S104
Mk45,221,228490,1,0,551,204, 35,S104
Mk48,220,230826,1,0,545,207, 20,S104
Mk51,220,232351,1,0,549,208, 47,S104
Mk54,220,234015,1,0,534,201, 17,S104
Mk57,220,236376,1,0,545,207, 49,S104
Mk60,221,237986,1,0,563,208, 31,S104
Mk63,220,239593,1,0,540,202, 45,S104
Mk66,221,241860,1,0,541,204, 19,S104
Mk69,220,243384,1,0,540,202, 23,S104
Mk72,221,244947,1,0,540,204, 18,S104
Mk75,220,247298,1,0,540,208, 24,S104
Mk78,221,248784,1,0,539,204, 49,S104
Mk81,220,250392,1,0,551,202,  5,S104
Mk84,220,252769,1,0,540,206, 15,S104
Mk87,220,254362,1,0,541,201,  5,S104
Mk90,221,255919,1,0,548,208, 28,S104
Mk93,220,258333,1,0,558,206,  5,S104
Mk96,220,259933,1,0,545,202, 14,S104
Mk99,220,261539,1,0,538,207, 35,S104
Mk102,220,263792,1,0,550,202, 32,S104
Mk105,220,265331,1,0,539,202, 28,S104
Mk108,220,266917,1,0,541,207, 40,S104
Mk111,220,269272,1,0,550,205, 25,S104
Mk114,220,270912,1,0,548,206,  5,S104
Mk117,221,272408,1,0,556,204, 20,S104
Mk120,220,274702,1,0,542,205, 21,S104
Mk123,220,276315,1,0,550,207,  6,S104
Mk126,220,277792,1,0,540,207,  5,S104
Mk129,220,280057,1,0,542,202, 45,S104
Mk132,220,281646,1,0,544,208,  2,S104
Mk135,220,283236,1,0,542,201, 33,S104
Mk138,220,285615,1,0,549,202,  5,S104
Mk141,220,287202,1,0,540,208, 37,S104
Mk144,220,288728,1,0,541,202,  9,S104
Mk147,220,291024,1,0,562,201, 22,S104
Mk150,220,292544,1,0,545,208, 26,S104
Mk153,220,294198,1,0,565,201, 21,S104
Mk156,220,296503,1,0,549,204, 21,S104
Mk159,221,298028,1,0,540,208, 25,S104
Mk162,220,299617,1,0,542,207, 31,S104
Mk165,220,301856,1,0,539,202, 35,S104
Mk168,220,303450,1,0,554,204,  7,S104
Mk171,220,304942,1,0,541,202,  1,S104
Mk174,221,307340,1,0,556,205, 24,S104
Mk177,221,308854,1,0,549,208, 11,S104
Mk180,220,310386,1,0,543,201, 16,S104
Mk183,221,312683,1,0,540,203, 42,S104
Mk186,220,314192,1,0,549,207,  1,S104
Mk189,220,315713,1,0,540,207,  6,S104
Mk192,221,318050,1,0,552,208, 22,S104
Mk195,221,319583,1,0,539,206, 20,S104
Mk198,220,321212,1,0,539,208,  2,S104
Mk201,220,323563,1,0,539,208, 15,S104
Mk204,220,325103,1,0,542,207, 34,S104
Mk207,220,326633,1,0,539,204, 37,S104
Mk210,220,328913,1,0,539,205, 12,S104
Mk213,221,330558,1,0,547,203, 18,S104
Mk216,220,332143,1,0,539,208,  7,S104
Mk219,221,334446,1,0,555,203, 23,S104
Mk222,221,336007,1,0,541,203, 11,S104
Mk225,221,337510,1,0,540,204,  5,S104
Mk228,220,342172,1,0,542,202, 17,S104
Mk231,220,343767,1,0,558,202,  1,S104
Mk234,220,345367,1,0,550,203, 44,S104
Mk237,221,347690,1,0,544,204, 21,S104
Mk240,221,349310,1,0,555,203, 14,S104
Mk243,220,350892,1,0,554,202, 25,S104
Mk246,220,353242,1,0,541,201,  3,S104
Mk249,221,354745,1,0,539,208, 15,S104
Mk252,220,356325,1,0,540,207, 27,S104
Mk255,220,358703,1,0,539,201, 17,S104
Mk258,220,360248,1,0,538,202, 50,S104
Mk261,220,361896,1,0,552,202,  9,S104
Mk264,220,364214,1,0,541,201, 48,S104
Mk267,221,365834,1,0,557,208, 30,S104
Mk270,220,367352,1,0,550,201, 19,S104
Mk273,221,369683,1,0,539,205, 34,S104
Mk276,220,371283,1,0,551,205, 17,S104
Mk279,220,372872,1,0,552,207,  1,S104
Mk282,221,375276,1,0,556,204, 39,S104
Mk285,220,376791,1,0,542,205,  6,S104
Mk288,220,378337,1,0,542,204, 14,S104
Mk291,220,380726,1,0,551,202,  3,S104
Mk294,220,382286,1,0,565,203, 13,S104
Mk297,220,383815,1,0,540,201, 13,S104
Mk300,220,386108,1,0,541,202,  9,S104
Mk303,220,387682,1,0,548,208, 41,S104
Mk306,220,389209,1,0,554,207, 36,S104
Mk309,220,391506,1,0,543,207, 27,S104
Mk312,220,393050,1,0,545,207, 36,S104
Mk315,220,394550,1,0,545,201, 28,S104
Mk318,221,396827,1,0,547,205, 47,S104
Mk321,220,398332,1,0,539,202, 19,S104
Mk324,220,399877,1,0,542,202, 49,S104
Mk327,220,402253,1,0,547,204, 14,S104
Mk330,220,403825,1,0,540,201,  2,S104
Mk333,220,405317,1,0,548,201, 38,S104
Mk336,220,407610,1,0,541,206, 20,S104
Mk339,220,409167,1,0,539,202,  8,S104
Mk342,220,410677,1,0,541,201, 46,S104
Mk345,220,412966,1,0,551,205, 25,S104
Mk348,220,414551,1,0,556,208,  9,S104
Mk351,220,416075,1,0,551,208,  8,S104
Mk354,220,418328,1,0,541,202, 25,S104
Mk357,220,419857,1,0,541,201, 17,S104
Mk360,220,421377,1,0,540,208, 40,S104
Mk363,220,423643,1,0,556,204, 44,S104
Mk366,221,425214,1,0,539,206, 22,S104
Mk369,220,426743,1,0,539,204, 10,S104
Mk372,220,429132,1,0,540,206,  4,S104
Mk375,220,430671,1,0,541,207,  1,S104
Mk378,221,432296,1,0,558,203, 21,S104
Mk381,220,434652,1,0,543,208, 20,S104
Mk384,220,436149,1,0,544,202, 40,S104
Mk387,221,437647,1,0,542,204, 50,S104
Mk390,221,439934,1,0,545,204, 15,S104
Mk393,220,441492,1,0,540,201,  9,S104
Mk396,220,443026,1,0,554,201, 13,S104
Mk399,221,445322,1,0,545,206, 14,S104
Mk402,220,446909,1,0,540,202,  3,S104
Mk405,220,448523,1,0,550,206, 45,S104
Mk408,220,450802,1,0,541,201, 15,S104
Mk411,220,452393,1,0,541,205, 10,S104
Mk414,220,453942,1,0,560,207, 23,S104
Mk417,220,456239,1,0,540,207, 41,S104
Mk420,220,457795,1,0,550,208, 33,S104
Mk423,220,459390,1,0,541,202, 14,S104
Mk426,220,461680,1,0,539,208, 47,S104
Mk429,220,463219,1,0,545,208, 12,S104
Mk432,220,464757,1,0,557,206, 48,S104
Mk435,220,467030,1,0,559,207, 16,S104
Mk438,220,468562,1,0,549,205,  7,S104
Mk441,220,470138,1,0,550,202, 24,S104
Mk444,220,472465,1,0,540,202, 21,S104
Mk447,220,474065,1,0,543,201, 30,S104
Mk450,220,475687,1,0,561,201,  2,S104
Mk453,220,498205,1,0,540,207, 36,S104
Mk456,220,499851,1,0,544,208,  1,S104
Mk459,220,501391,1,0,538,206, 37,S104
Mk462,220,503662,1,0,542,207, 21,S104
Mk465,220,505195,1,0,562,201, 24,S104
Mk468,220,506765,1,0,545,207, 45,S104
Mk471,220,509048,1,0,540,207, 48,S104
Mk474,221,510591,1,0,553,206, 15,S104
Mk477,220,512172,1,0,559,207,  7,S104
Mk480,221,514495,1,0,540,203,  8,S104
Mk483,221,516074,1,0,540,202, 15,S104
Mk486,220,517661,1,0,556,202, 31,S104
Mk489,221,519938,1,0,549,208, 38,S104
Mk492,220,521569,1,0,539,207, 46,S104
Mk495,220,523117,1,0,541,201,  3,S104
Mk498,220,525427,1,0,542,202,  1,S104
Mk501,221,526980,1,0,541,208,  6,S104
Mk504,220,528501,1,0,541,202, 38,S104
Mk507,220,530857,1,0,538,208, 29,S104
Mk510,220,532421,1,0,540,208,  1,S104
Mk513,220,533961,1,0,542,201, 35,S104
Mk516,220,536294,1,0,550,206, 27,S104
Mk519,220,537921,1,0,560,207, 23,S104
Mk522,220,539548,1,0,553,201, 20,S104
Mk525,220,541897,1,0,540,207, 43,S104
Mk528,220,543427,1,0,540,202, 43,S104
Mk531,220,545027,1,0,549,208, 33,S104
Mk534,220,547391,1,0,550,201, 28,S104
Mk537,220,549029,1,0,542,208, 19,S104
Mk540,221,550609,1,0,551,203,  4,S104
Mk543,220,552882,1,0,549,202,  2,S104
Mk546,220,554421,1,0,542,206, 27,S104
Mk549,220,556017,1,0,550,202, 19,S104
Mk552,220,558311,1,0,539,208, 12,S104
Mk555,220,559903,1,0,540,208,  3,S104
Mk558,220,561537,1,0,540,207, 50,S104
Mk561,220,563956,1,0,551,208, 23,S104
Mk564,220,565546,1,0,545,201, 43,S104
Mk567,220,567179,1,0,548,207, 32,S104
Mk570,220,569505,1,0,541,207,  2,S104
Mk573,220,571012,1,0,556,205, 30,S104
Mk576,220,572570,1,0,543,207,  3,S104
Mk579,220,574858,1,0,539,203, 50,S104
Mk582,220,576456,1,0,537,205,  9,S104
Mk585,220,578048,1,0,537,206, 20,S104
Mk588,221,580405,1,0,540,203, 13,S104
Mk591,220,581985,1,0,553,207, 14,S104
Mk594,221,583509,1,0,560,204, 10,S104
Mk597,220,585863,1,0,539,206,  7,S104
Mk600,220,587425,1,0,551,203, 25,S104
Mk603,220,588958,1,0,554,208,  3,S104
Mk606,221,591246,1,0,542,206, 39,S104
Mk609,221,592821,1,0,538,207, 11,S104
Mk612,220,594336,1,0,541,207, 12,S104
Mk615,220,596586,1,0,544,207, 13,S104
Mk618,220,598189,1,0,551,207,  9,S104
Mk621,221,599750,1,0,554,201, 40,S104
Mk624,221,602117,1,0,554,207, 12,S104
Mk627,220,603752,1,0,547,204, 16,S104
Mk630,220,605361,1,0,543,205,  8,S104
Mk633,220,607732,1,0,539,208, 25,S104
Mk636,220,609290,1,0,555,201, 18,S104
Mk639,220,610912,1,0,552,208, 46,S104
Mk642,220,613231,1,0,534,203, 13,S104
Mk645,220,614722,1,0,541,202, 10,S104
Mk648,220,616275,1,0,548,208, 16,S104
Mk651,220,618528,1,0,551,206, 29,S104
Mk654,220,620105,1,0,544,201,  6,S104
Mk657,220,621638,1,0,540,208, 18,S104
Mk660,221,623980,1,0,540,201, 26,S104
Mk663,220,625556,1,0,540,208, 39,S104
Mk666,221,627173,1,0,557,202,  7,S104
Mk669,220,629445,1,0,542,205, 34,S104
Mk672,220,631066,1,0,542,201, 15,S104
Mk675,220,632636,1,0,540,206, 17,S104
Mk678,220,654221,1,0,541,207,  4,S104
Mk681,220,655805,1,0,545,207,  4,S104
Mk684,221,657371,1,0,540,208, 14,S104
Mk687,220,659705,1,0,545,206, 41,S104
Mk690,220,661289,1,0,541,203, 22,S104
Mk693,220,662780,1,0,544,205, 19,S104
Mk696,221,665046,1,0,543,208, 22,S104
Mk699,220,666563,1,0,539,208, 11,S104
Mk702,220,668060,1,0,545,207, 42,S104
Mk705,220,670327,1,0,540,201, 46,S104
Mk708,221,671838,1,0,539,203, 31,S104
Mk711,220,673418,1,0,540,203, 12,S104
Mk714,220,675754,1,0,546,204, 18,S104
Mk717,220,677410,1,0,540,203, 10,S104
Mk720,220,678920,1,0,545,208, 23,S104
Mk723,220,681283,1,0,558,207, 32,S104
Mk726,220,682928,1,0,540,201, 19,S104
Mk729,220,684514,1,0,543,202,  8,S104
Mk732,221,686862,1,0,541,208, 10,S104
Mk735,220,688446,1,0,553,203, 10,S104
Mk738,220,690027,1,0,551,202, 17,S104
Mk741,220,692291,1,0,548,201, 43,S104
Mk744,220,693867,1,0,541,206,  4,S104
Mk747,220,695450,1,0,545,201, 18,S104
Mk750,220,697801,1,0,533,202,  6,S104
Mk753,221,699295,1,0,539,207, 11,S104
Mk756,220,700910,1,0,541,204, 18,S104
Mk759,220,703176,1,0,541,201, 16,S104
Mk762,220,704685,1,0,554,205, 41,S104
Mk765,220,706253,1,0,555,202, 21,S104
Mk768,220,708621,1,0,543,205, 20,S104
Mk771,220,710182,1,0,542,201, 12,S104
Mk774,221,711715,1,0,558,206, 16,S104
Mk777,221,714094,1,0,545,201, 24,S104
Mk780,220,715584,1,0,539,202, 24,S104
Mk783,220,717166,1,0,541,205, 25,S104
Mk786,220,719480,1,0,543,205, 13,S104
Mk789,220,721044,1,0,540,205, 10,S104
Mk792,220,722552,1,0,548,201,  7,S104
Mk795,220,724865,1,0,544,202, 11,S104
Mk798,220,726514,1,0,551,206, 23,S104
Mk801,220,728101,1,0,538,201, 17,S104
Mk804,220,730424,1,0,544,201, 29,S104
Mk807,220,731954,1,0,541,203, 44,S104
Mk810,220,733445,1,0,544,204,  6,S104
Mk813,220,735741,1,0,540,208, 13,S104
Mk816,220,737383,1,0,548,203,  2,S104
Mk819,220,738921,1,0,540,206, 16,S104
Mk822,221,741246,1,0,544,203,  9,S104
Mk825,220,742745,1,0,543,208,  8,S104
Mk828,220,744285,1,0,541,201, 22,S104
Mk831,220,746597,1,0,553,203,  3,S104
Mk834,220,748220,1,0,555,201, 22,S104
Mk837,220,749755,1,0,540,207, 22,S104
Mk840,220,752062,1,0,551,207, 34,S104
Mk843,221,753635,1,0,544,204, 26,S104
Mk846,220,755197,1,0,540,207, 19,S104
Mk849,220,757549,1,0,533,205, 11,S104
Mk852,220,759129,1,0,539,201,  4,S104
Mk855,220,760728,1,0,541,205,  7,S104
Mk858,220,763078,1,0,541,207, 16,S104
Mk861,220,764644,1,0,552,202, 29,S104
Mk864,220,766169,1,0,552,206, 39,S104
Mk867,220,768527,1,0,548,204, 12,S104
Mk870,220,770160,1,0,551,202, 18,S104
Mk873,220,771755,1,0,542,208, 42,S104
Mk876,220,774004,1,0,545,201, 30,S104
Mk879,220,775522,1,0,542,205, 37,S104
Mk882,221,777025,1,0,557,205,  2,S104
Mk885,220,779301,1,0,541,202,  8,S104
Mk888,220,780869,1,0,543,202,  4,S104
Mk891,220,782442,1,0,540,203,  5,S104
Mk894,220,784824,1,0,551,201, 24,S104
Mk897,220,786420,1,0,560,207, 23,S104
Mk900,220,787940,1,0,542,202, 44,S104
Mk3,221,11855,1,0,556,208,,S105
Mk6,221,13509,1,0,555,205,  7,S105
Mk9,220,15123,1,0,544,202,  6,S105
Mk12,220,17501,1,0,551,202, 15,S105
Mk15,221,19135,1,0,548,206, 29,S105
Mk18,220,20767,1,0,538,208, 24,S105
Mk21,221,23047,1,0,555,208, 40,S105
Mk24,221,24669,1,0,552,208, 15,S105
Mk27,221,26230,1,0,550,208, 38,S105
Mk30,220,28563,1,0,542,201, 12,S105
Mk33,220,30168,1,0,542,207, 39,S105
Mk36,221,31765,1,0,560,208,  3,S105
Mk39,220,34124,1,0,535,202, 46,S105
Mk42,221,35722,1,0,550,205, 41,S105
Mk45,220,37280,1,0,541,202,  3,S105
Mk48,220,39588,1,0,545,204,  6,S105
Mk51,221,41150,1,0,549,205, 17,S105
Mk54,220,42689,1,0,553,202, 23,S105
Mk57,221,45033,1,0,543,206, 30,S105
Mk60,220,46594,1,0,542,202,  8,S105
Mk63,220,48151,1,0,540,207,  7,S105
Mk66,220,50465,1,0,537,201, 13,S105
Mk69,220,52010,1,0,548,207, 24,S105
Mk72,220,53496,1,0,539,208, 46,S105
Mk75,221,55890,1,0,549,207, 10,S105
Mk78,220,57435,1,0,544,201,  6,S105
Mk81,220,59001,1,0,556,202, 36,S105
Mk84,220,61300,1,0,554,207, 13,S105
Mk87,220,62928,1,0,545,205, 42,S105
Mk90,220,64476,1,0,538,207, 12,S105
Mk93,220,66888,1,0,542,202, 11,S105
Mk96,220,68477,1,0,552,201, 16,S105
Mk99,220,70035,1,0,547,201, 45,S105
Mk102,220,72363,1,0,550,204,  3,S105
Mk105,220,73917,1,0,545,207, 16,S105
Mk108,220,75537,1,0,553,202, 25,S105
Mk111,220,77905,1,0,550,201, 43,S105
Mk114,220,79495,1,0,544,203, 33,S105
Mk117,220,81047,1,0,558,201,  5,S105
Mk120,220,83381,1,0,550,207,  4,S105
Mk123,220,84934,1,0,549,202, 48,S105
Mk126,220,86477,1,0,550,202, 22,S105
Mk129,220,88804,1,0,543,204,  4,S105
Mk132,220,90395,1,0,538,203,  3,S105
Mk135,221,91931,1,0,553,206, 23,S105
Mk138,220,94249,1,0,542,205, 17,S105
Mk141,221,95807,1,0,546,208, 13,S105
Mk144,221,97381,1,0,549,206,  9,S105
Mk147,220,99688,1,0,551,204, 12,S105
Mk150,221,101248,1,0,540,201,  5,S105
Mk153,220,102793,1,0,552,206, 13,S105
Mk156,220,105114,1,0,564,208, 16,S105
Mk159,220,106702,1,0,540,208, 31,S105
Mk162,220,108247,1,0,539,208,  1,S105
Mk165,220,110567,1,0,546,203, 44,S105
Mk168,220,112104,1,0,549,207, 14,S105
Mk171,220,113740,1,0,556,201, 39,S105
Mk174,220,116112,1,0,540,202,  6,S105
Mk177,220,117635,1,0,551,208, 32,S105
Mk180,220,119194,1,0,559,207,  4,S105
Mk183,220,121504,1,0,552,203, 22,S105
Mk186,220,123052,1,0,538,205, 16,S105
Mk189,221,124641,1,0,552,205, 16,S105
Mk192,220,127011,1,0,551,207, 24,S105
Mk195,220,128572,1,0,562,202, 15,S105
Mk198,220,130168,1,0,553,201, 10,S105
Mk201,220,132550,1,0,552,201,  5,S105
Mk204,220,134187,1,0,547,207, 23,S105
Mk207,220,135709,1,0,540,206, 37,S105
Mk210,220,138055,1,0,539,201,  9,S105
Mk213,220,139614,1,0,552,204, 15,S105
Mk216,221,141230,1,0,539,206, 22,S105
Mk219,220,143525,1,0,542,208, 19,S105
Mk222,221,145115,1,0,561,201, 34,S105
Mk225,220,146692,1,0,551,201, 28,S105
Mk228,220,161512,1,0,540,207, 47,S105
Mk231,220,163056,1,0,551,202, 24,S105
Mk234,220,164674,1,0,552,207, 12,S105
Mk237,221,166959,1,0,540,202, 35,S105
Mk240,221,168587,1,0,568,208, 31,S105
Mk243,220,170171,1,0,544,204, 14,S105
Mk246,220,172555,1,0,561,202, 11,S105
Mk249,221,174095,1,0,539,206, 39,S105
Mk252,220,175655,1,0,540,201, 11,S105
Mk255,220,178046,1,0,556,201, 46,S105
Mk258,220,179553,1,0,542,207, 25,S105
Mk261,221,181060,1,0,540,204, 27,S105
Mk264,220,183394,1,0,549,205, 19,S105
Mk267,220,184994,1,0,545,201,  4,S105
Mk270,220,186625,1,0,550,205, 32,S105
Mk273,220,188960,1,0,548,203, 20,S105
Mk276,220,190614,1,0,556,208,  9,S105
Mk279,221,192198,1,0,544,206, 16,S105
Mk282,220,194544,1,0,548,208, 23,S105
Mk285,220,196165,1,0,552,206, 43,S105
Mk288,220,197762,1,0,541,203,  1,S105
Mk291,220,200037,1,0,553,207, 13,S105
Mk294,220,201555,1,0,550,203,  7,S105
Mk297,220,203137,1,0,561,208,  4,S105
Mk300,220,205516,1,0,548,201, 20,S105
Mk303,220,207077,1,0,547,206,  8,S105
Mk306,220,208613,1,0,553,207, 10,S105
Mk309,220,210988,1,0,553,207, 18,S105
Mk312,221,212558,1,0,540,201, 14,S105
Mk315,220,214110,1,0,549,201, 21,S105
Mk318,221,216470,1,0,563,208,  9,S105
Mk321,221,218074,1,0,538,208,  5,S105
Mk324,221,219624,1,0,551,206, 19,S105
Mk327,220,221981,1,0,553,206,  6,S105
Mk330,220,223504,1,0,538,203,  3,S105
Mk333,220,225034,1,0,539,202, 12,S105
Mk336,220,227390,1,0,541,201, 26,S105
Mk339,220,228977,1,0,544,208, 48,S105
Mk342,220,230568,1,0,556,202, 27,S105
Mk345,220,232972,1,0,564,201, 24,S105
Mk348,220,234514,1,0,543,202, 16,S105
Mk351,220,236140,1,0,540,207, 40,S105
Mk354,220,238460,1,0,539,203, 49,S105
Mk357,220,240006,1,0,539,207, 21,S105
Mk360,220,241592,1,0,550,207, 36,S105
Mk363,220,243878,1,0,556,203, 32,S105
Mk366,220,245501,1,0,546,203, 22,S105
Mk369,220,247043,1,0,546,208,  8,S105
Mk372,220,249401,1,0,546,201, 33,S105
Mk375,220,251041,1,0,548,202, 11,S105
Mk378,220,252632,1,0,543,208, 18,S105
Mk381,220,255005,1,0,540,202,  2,S105
Mk384,220,256641,1,0,551,207,  2,S105
Mk387,220,258330,1,0,540,205, 16,S105
Mk390,220,260643,1,0,540,206, 11,S105
Mk393,220,262198,1,0,553,205, 20,S105
Mk396,220,263731,1,0,553,206, 19,S105
Mk399,220,266117,1,0,560,206, 18,S105
Mk402,220,267811,1,0,541,203,  5,S105
Mk405,221,269329,1,0,538,202,  6,S105
Mk408,220,271718,1,0,539,201,  1,S105
Mk411,221,273284,1,0,547,205, 43,S105
Mk414,220,274808,1,0,558,206,  8,S105
Mk417,220,277175,1,0,551,202,  7,S105
Mk420,220,278798,1,0,556,202, 25,S105
Mk423,220,280355,1,0,538,203, 19,S105
Mk426,220,282736,1,0,544,207, 25,S105
Mk429,220,284265,1,0,548,208, 30,S105
Mk432,221,285832,1,0,548,202, 36,S105
Mk435,220,288221,1,0,541,207, 42,S105
Mk438,220,289763,1,0,545,205,  5,S105
Mk441,220,291263,1,0,541,204,  2,S105
Mk444,220,293554,1,0,561,208, 25,S105
Mk447,220,295113,1,0,549,205, 47,S105
Mk450,220,296645,1,0,539,203, 17,S105
Mk453,220,305126,1,0,540,201,  2,S105
Mk456,220,306652,1,0,562,207, 40,S105
Mk459,220,308183,1,0,547,208, 50,S105
Mk462,220,310450,1,0,551,202, 11,S105
Mk465,220,312076,1,0,548,204, 20,S105
Mk468,220,313721,1,0,551,203, 10,S105
Mk471,220,316073,1,0,540,207,  7,S105
Mk474,220,317658,1,0,541,201,  9,S105
Mk477,220,319204,1,0,541,202, 42,S105
Mk480,221,321504,1,0,562,204, 46,S105
Mk483,220,323117,1,0,542,205, 18,S105
Mk486,220,324712,1,0,549,201, 18,S105
Mk489,220,327002,1,0,543,201, 38,S105
Mk492,220,328605,1,0,550,208, 10,S105
Mk495,220,330216,1,0,544,208, 24,S105
Mk498,220,332562,1,0,548,207, 48,S105
Mk501,220,334059,1,0,549,202, 28,S105
Mk504,220,335688,1,0,541,205,  3,S105
Mk507,220,337954,1,0,540,204,  7,S105
Mk510,220,339463,1,0,548,208,  6,S105
Mk513,220,341059,1,0,549,201, 18,S105
Mk516,221,343423,1,0,554,201, 49,S105
Mk519,220,344973,1,0,542,204, 26,S105
Mk522,220,346555,1,0,552,204, 21,S105
Mk525,220,348849,1,0,550,208, 15,S105
Mk528,220,350431,1,0,553,207, 13,S105
Mk531,220,352060,1,0,540,207,  1,S105
Mk534,220,354376,1,0,544,208, 40,S105
Mk537,220,355909,1,0,543,208, 49,S105
Mk540,220,357439,1,0,548,208,  8,S105
Mk543,220,359769,1,0,557,201, 25,S105
Mk546,220,361336,1,0,544,204, 34,S105
Mk549,220,362974,1,0,562,204,  4,S105
Mk552,220,365268,1,0,543,208,  9,S105
Mk555,220,366812,1,0,549,207, 29,S105
Mk558,220,368377,1,0,539,208, 26,S105
Mk561,220,370644,1,0,539,204, 22,S105
Mk564,220,372210,1,0,547,202,  1,S105
Mk567,220,373807,1,0,544,204,  5,S105
Mk570,220,376173,1,0,559,205, 20,S105
Mk573,220,377705,1,0,545,202,  9,S105
Mk576,220,379344,1,0,547,201, 36,S105
Mk579,220,381745,1,0,560,207, 19,S105
Mk582,220,383328,1,0,551,201, 41,S105
Mk585,220,384861,1,0,550,202, 37,S105
Mk588,220,387234,1,0,548,202, 33,S105
Mk591,220,388884,1,0,561,202,  8,S105
Mk594,220,390461,1,0,550,208, 47,S105
Mk597,220,392767,1,0,552,202, 42,S105
Mk600,220,394307,1,0,545,206, 11,S105
Mk603,220,395893,1,0,552,205, 14,S105
Mk606,220,398306,1,0,540,207, 15,S105
Mk609,220,399876,1,0,556,203, 43,S105
Mk612,221,401389,1,0,540,201,  3,S105
Mk615,220,403706,1,0,552,207, 20,S105
Mk618,220,405359,1,0,559,204, 20,S105
Mk621,220,406877,1,0,543,208, 23,S105
Mk624,220,409160,1,0,539,206, 37,S105
Mk627,220,410672,1,0,542,202, 21,S105
Mk630,220,412266,1,0,553,201, 45,S105
Mk633,220,414567,1,0,553,202, 31,S105
Mk636,220,416123,1,0,564,201, 50,S105
Mk639,220,417766,1,0,544,202,  7,S105
Mk642,220,420081,1,0,551,204, 48,S105
Mk645,220,421602,1,0,554,202, 12,S105
Mk648,220,423153,1,0,543,201, 17,S105
Mk651,220,425466,1,0,539,207, 50,S105
Mk654,220,427060,1,0,554,207,  8,S105
Mk657,220,428650,1,0,556,208, 17,S105
Mk660,220,430962,1,0,551,203, 30,S105
Mk663,220,432625,1,0,547,208, 15,S105
Mk666,220,434215,1,0,554,204, 45,S105
Mk669,220,436592,1,0,543,207,  8,S105
Mk672,220,438113,1,0,539,207, 10,S105
Mk675,220,439700,1,0,551,202, 33,S105
Mk678,220,463105,1,0,553,207, 37,S105
Mk681,220,464620,1,0,548,202, 12,S105
Mk684,220,466181,1,0,546,206, 49,S105
Mk687,220,468509,1,0,548,202,  4,S105
Mk690,220,470151,1,0,561,203, 23,S105
Mk693,220,471755,1,0,553,202, 20,S105
Mk696,220,474157,1,0,550,201, 44,S105
Mk699,220,475670,1,0,551,207, 18,S105
Mk702,220,477302,1,0,549,201, 19,S105
Mk705,220,479639,1,0,548,207, 17,S105
Mk708,221,481147,1,0,552,206, 44,S105
Mk711,220,482679,1,0,551,207, 25,S105
Mk714,220,484982,1,0,545,203, 34,S105
Mk717,220,486601,1,0,543,208, 24,S105
Mk720,220,488122,1,0,551,203, 23,S105
Mk723,220,490431,1,0,539,207, 10,S105
Mk726,220,492047,1,0,543,201,  4,S105
Mk729,220,493597,1,0,538,202, 44,S105
Mk732,220,495938,1,0,542,203, 14,S105
Mk735,220,497530,1,0,550,208, 17,S105
Mk738,220,499076,1,0,554,203,  6,S105
Mk741,220,501319,1,0,539,208, 19,S105
Mk744,220,502819,1,0,555,208, 39,S105
Mk747,220,504355,1,0,554,204, 35,S105
Mk750,220,506721,1,0,553,201,  7,S105
Mk753,220,508398,1,0,550,207, 12,S105
Mk756,220,509945,1,0,539,207, 31,S105
Mk759,220,512252,1,0,558,208, 47,S105
Mk762,220,513894,1,0,550,202, 17,S105
Mk765,221,515465,1,0,541,206, 38,S105
Mk768,220,517811,1,0,558,203, 22,S105
Mk771,221,519363,1,0,543,205, 11,S105
Mk774,220,520982,1,0,542,208, 25,S105
Mk777,220,523296,1,0,560,207, 41,S105
Mk780,220,524804,1,0,538,207, 45,S105
Mk783,220,526383,1,0,542,208, 29,S105
Mk786,220,528748,1,0,548,201, 32,S105
Mk789,220,530271,1,0,538,208, 29,S105
Mk792,221,531873,1,0,540,202,  3,S105
Mk795,220,534168,1,0,538,202, 21,S105
Mk798,220,535767,1,0,558,207,  9,S105
Mk801,220,537286,1,0,544,206, 38,S105
Mk804,220,539566,1,0,553,202, 15,S105
Mk807,220,541158,1,0,541,206, 35,S105
Mk810,220,542752,1,0,560,207,  2,S105
Mk813,220,545105,1,0,537,206,  2,S105
Mk816,220,546699,1,0,560,205, 13,S105
Mk819,220,548312,1,0,561,201, 21,S105
Mk822,221,550672,1,0,562,201, 14,S105
Mk825,221,552204,1,0,540,205, 35,S105
Mk828,220,553719,1,0,554,203, 22,S105
Mk831,220,556082,1,0,551,208, 18,S105
Mk834,220,557710,1,0,553,201, 21,S105
Mk837,220,559271,1,0,556,208, 22,S105
Mk840,220,561667,1,0,539,204, 28,S105
Mk843,220,563357,1,0,541,202, 14,S105
Mk846,220,564970,1,0,550,205, 27,S105
Mk849,220,567337,1,0,550,205, 14,S105
Mk852,220,569013,1,0,543,204, 10,S105
Mk855,220,570589,1,0,552,202,  2,S105
Mk858,220,572878,1,0,557,205, 34,S105
Mk861,220,574483,1,0,550,201,  5,S105
Mk864,221,575995,1,0,541,207, 27,S105
Mk867,221,578416,1,0,557,201, 23,S105
Mk870,220,580020,1,0,545,205,  1,S105
Mk873,221,581583,1,0,541,204,  1,S105
Mk876,220,583942,1,0,558,208, 13,S105
Mk879,220,585578,1,0,548,203, 50,S105
Mk882,220,587106,1,0,555,208,  1,S105
Mk885,220,589448,1,0,555,202, 26,S105
Mk888,220,591030,1,0,545,207, 28,S105
Mk891,220,592633,1,0,548,201, 21,S105
Mk894,220,595005,1,0,553,201,  2,S105
Mk897,220,596615,1,0,555,201, 30,S105
Mk900,220,598159,1,0,540,204, 41,S105
Mk3,220,1327,1,0,558,204,,S106
Mk6,220,2883,1,0,551,201, 16,S106
Mk9,220,4555,1,0,540,201,  5,S106
Mk12,220,6838,1,0,539,201, 28,S106
Mk15,220,8438,1,0,543,201,  1,S106
Mk18,220,10006,1,0,548,208, 47,S106
Mk21,220,12405,1,0,556,202, 45,S106
Mk24,221,14096,1,0,559,208,  2,S106
Mk27,220,15602,1,0,540,206, 29,S106
Mk30,220,17976,1,0,551,204, 18,S106
Mk33,220,19583,1,0,545,206, 20,S106
Mk36,221,21265,1,0,556,204, 24,S106
Mk39,220,23572,1,0,538,202, 21,S106
Mk42,220,25074,1,0,540,202, 32,S106
Mk45,220,26784,1,0,541,206,  3,S106
Mk48,220,29130,1,0,541,201,  4,S106
Mk51,221,30712,1,0,561,205, 26,S106
Mk54,221,32320,1,0,556,202, 17,S106
Mk57,220,34666,1,0,556,207, 48,S106
Mk60,220,36168,1,0,545,201, 44,S106
Mk63,220,37751,1,0,541,207, 31,S106
Mk66,220,40143,1,0,553,207, 31,S106
Mk69,220,41790,1,0,550,208, 17,S106
Mk72,220,43391,1,0,547,202, 47,S106
Mk75,220,45763,1,0,539,207, 10,S106
Mk78,220,47312,1,0,542,207, 46,S106
Mk81,220,48966,1,0,555,202,  8,S106
Mk84,220,51268,1,0,561,202, 38,S106
Mk87,220,52960,1,0,540,207, 15,S106
Mk90,220,54611,1,0,541,202, 26,S106
Mk93,220,56949,1,0,541,208, 42,S106
Mk96,220,58531,1,0,540,202, 37,S106
Mk99,220,60127,1,0,544,204, 44,S106
Mk102,220,62470,1,0,540,205, 17,S106
Mk105,220,64031,1,0,539,203,  9,S106
Mk108,220,65565,1,0,556,208,  1,S106
Mk111,220,67852,1,0,539,207, 44,S106
Mk114,220,69504,1,0,541,202, 23,S106
Mk117,220,71161,1,0,548,207,  8,S106
Mk120,220,73566,1,0,548,201, 19,S106
Mk123,220,75119,1,0,543,205, 36,S106
Mk126,220,76683,1,0,552,207, 14,S106
Mk129,220,78965,1,0,555,204, 48,S106
Mk132,221,80588,1,0,536,205,  4,S106
Mk135,220,82216,1,0,539,207, 15,S106
Mk138,220,84538,1,0,577,204, 15,S106
Mk141,220,86096,1,0,552,202, 23,S106
Mk144,221,87691,1,0,547,203, 12,S106
Mk147,220,90094,1,0,541,202, 15,S106
Mk150,220,91634,1,0,539,202, 27,S106
Mk153,220,93225,1,0,555,206, 39,S106
Mk156,220,95583,1,0,547,202, 22,S106
Mk159,221,97229,1,0,546,207, 24,S106
Mk162,220,98781,1,0,557,203, 12,S106
Mk165,220,101161,1,0,540,207, 11,S106
Mk168,220,102783,1,0,554,208, 36,S106
Mk171,221,104426,1,0,551,208, 31,S106
Mk174,220,106825,1,0,541,208, 17,S106
Mk177,221,108408,1,0,545,205, 23,S106
Mk180,220,110025,1,0,545,202,  3,S106
Mk183,221,112364,1,0,546,203,  5,S106
Mk186,220,113943,1,0,554,207,  3,S106
Mk189,220,115524,1,0,540,208, 43,S106
Mk192,220,117841,1,0,540,201, 11,S106
Mk195,221,119410,1,0,538,204, 34,S106
Mk198,220,121087,1,0,539,202, 22,S106
Mk201,220,123495,1,0,551,208, 20,S106
Mk204,221,125095,1,0,539,204, 13,S106
Mk207,220,126660,1,0,541,201,  9,S106
Mk210,220,157902,1,0,551,203, 19,S106
Mk213,220,159514,1,0,550,206,  4,S106
Mk216,220,161170,1,0,539,201,  7,S106
Mk219,220,163508,1,0,548,208, 49,S106
Mk222,220,165150,1,0,540,208, 26,S106
Mk225,220,166748,1,0,542,207, 40,S106
Mk228,220,169061,1,0,538,201, 27,S106
Mk231,220,170680,1,0,548,208,  4,S106
Mk234,220,172345,1,0,538,207,  5,S106
Mk237,220,174625,1,0,539,207, 40,S106
Mk240,220,176226,1,0,548,207, 39,S106
Mk243,220,177855,1,0,552,207, 21,S106
Mk246,220,180266,1,0,550,205, 11,S106
Mk249,220,181845,1,0,550,201,  2,S106
Mk252,220,183466,1,0,546,204, 42,S106
Mk255,220,185789,1,0,552,202,  1,S106
Mk258,220,187428,1,0,549,206, 30,S106
Mk261,220,189003,1,0,553,201, 11,S106
Mk264,220,191360,1,0,539,206, 10,S106
Mk267,220,192951,1,0,538,204, 21,S106
Mk270,220,194577,1,0,552,207, 10,S106
Mk273,220,196916,1,0,548,201, 18,S106
Mk276,220,198459,1,0,541,206, 22,S106
Mk279,220,200014,1,0,538,205, 20,S106
Mk282,220,202343,1,0,542,202, 25,S106
Mk285,220,203965,1,0,551,202, 16,S106
Mk288,221,205567,1,0,544,206, 22,S106
Mk291,220,207871,1,0,540,203,  1,S106
Mk294,220,209446,1,0,540,207, 19,S106
Mk297,220,211029,1,0,539,208,  7,S106
Mk300,220,213337,1,0,543,207, 36,S106
Mk303,220,214991,1,0,538,202,  4,S106
Mk306,220,216601,1,0,540,205, 41,S106
Mk309,220,218998,1,0,545,203,  6,S106
Mk312,220,220691,1,0,550,201,  7,S106
Mk315,220,222247,1,0,544,201, 41,S106
Mk318,220,224535,1,0,556,208, 13,S106
Mk321,220,226103,1,0,541,207, 12,S106
Mk324,220,227711,1,0,549,205,  6,S106
Mk327,220,229958,1,0,542,205,  8,S106
Mk330,220,231535,1,0,552,204, 19,S106
Mk333,220,233147,1,0,551,201,  7,S106
Mk336,221,235509,1,0,542,203, 23,S106
Mk339,220,237115,1,0,539,208, 14,S106
Mk342,221,238677,1,0,539,204, 49,S106
Mk345,220,241041,1,0,553,206,  2,S106
Mk348,220,242589,1,0,538,204,  6,S106
Mk351,220,244219,1,0,551,206, 13,S106
Mk354,220,246603,1,0,560,208,  9,S106
Mk357,221,248120,1,0,552,203, 30,S106
Mk360,220,249782,1,0,551,206, 24,S106
Mk363,220,252082,1,0,542,203,  5,S106
Mk366,220,253716,1,0,539,201, 18,S106
Mk369,220,255387,1,0,539,205, 30,S106
Mk372,221,257753,1,0,542,202, 10,S106
Mk375,220,259360,1,0,541,206, 28,S106
Mk378,220,260924,1,0,550,207, 10,S106
Mk381,220,263228,1,0,550,208,  5,S106
Mk384,220,264838,1,0,547,206, 20,S106
Mk387,220,266409,1,0,539,206, 19,S106
Mk390,220,268664,1,0,540,206, 15,S106
Mk393,221,270273,1,0,553,208, 12,S106
Mk396,220,271806,1,0,543,207, 32,S106
Mk399,220,274163,1,0,542,201,  1,S106
Mk402,220,275850,1,0,562,201, 17,S106
Mk405,220,277382,1,0,540,207, 38,S106
Mk408,220,279661,1,0,540,206, 35,S106
Mk411,221,281286,1,0,548,205, 16,S106
Mk414,220,282939,1,0,538,201, 24,S106
Mk417,220,285332,1,0,552,204,  7,S106
Mk420,221,286984,1,0,554,208,  3,S106
Mk423,221,288527,1,0,547,204,  6,S106
Mk426,220,290848,1,0,546,202, 19,S106
Mk429,220,292469,1,0,559,207, 23,S106
Mk432,220,294098,1,0,542,207, 29,S106
Mk435,220,319314,1,0,555,202, 47,S106
Mk438,221,320860,1,0,539,208, 46,S106
Mk441,220,322449,1,0,540,201, 46,S106
Mk444,220,324721,1,0,554,202, 44,S106
Mk447,220,326363,1,0,537,201, 13,S106
Mk450,220,328014,1,0,538,207, 32,S106
Mk453,220,330325,1,0,549,201,  2,S106
Mk456,220,331973,1,0,551,204, 46,S106
Mk459,221,333633,1,0,548,206, 11,S106
Mk462,220,336049,1,0,547,208, 13,S106
Mk465,220,337633,1,0,543,201, 27,S106
Mk468,220,339343,1,0,561,208, 45,S106
Mk471,220,341706,1,0,558,202, 18,S106
Mk474,220,343341,1,0,555,207, 47,S106
Mk477,220,345006,1,0,553,206, 25,S106
Mk480,221,347416,1,0,554,203, 23,S106
Mk483,220,349006,1,0,540,201, 16,S106
Mk486,220,350608,1,0,538,207, 21,S106
Mk489,220,352989,1,0,540,204, 16,S106
Mk492,220,354511,1,0,557,208,  6,S106
Mk495,220,356064,1,0,565,202,  9,S106
Mk498,220,358364,1,0,552,201, 34,S106
Mk501,220,359910,1,0,543,208, 40,S106
Mk504,221,361464,1,0,539,203,  8,S106
Mk507,220,363863,1,0,542,208, 21,S106
Mk510,220,365511,1,0,544,207,  1,S106
Mk513,221,367117,1,0,549,204, 42,S106
Mk516,220,369505,1,0,537,207, 14,S106
Mk519,220,371027,1,0,559,202, 10,S106
Mk522,220,372731,1,0,555,203, 21,S106
Mk525,220,375024,1,0,547,201, 13,S106
Mk528,220,376675,1,0,552,202,  2,S106
Mk531,220,378269,1,0,546,208, 11,S106
Mk534,220,380634,1,0,540,208, 41,S106
Mk537,221,382269,1,0,550,203, 43,S106
Mk540,220,383789,1,0,553,207, 10,S106
Mk543,220,386156,1,0,541,201, 34,S106
Mk546,220,387832,1,0,550,206, 12,S106
Mk549,220,389480,1,0,548,201, 17,S106
Mk552,220,391812,1,0,538,205, 29,S106
Mk555,220,393369,1,0,549,201, 13,S106
Mk558,220,395005,1,0,551,201, 43,S106
Mk561,220,397268,1,0,539,202, 35,S106
Mk564,220,398968,1,0,556,204, 37,S106
Mk567,220,400524,1,0,537,203, 25,S106
Mk570,220,402819,1,0,540,208,  5,S106
Mk573,220,404465,1,0,556,206, 28,S106
Mk576,220,406036,1,0,540,201, 25,S106
Mk579,220,408308,1,0,541,208, 25,S106
Mk582,220,409888,1,0,546,208, 38,S106
Mk585,221,411430,1,0,550,205, 19,S106
Mk588,220,413755,1,0,541,208, 22,S106
Mk591,220,415368,1,0,542,202, 33,S106
Mk594,220,416942,1,0,549,201,  6,S106
Mk597,220,419248,1,0,546,201, 18,S106
Mk600,220,420866,1,0,560,202, 14,S106
Mk603,220,422409,1,0,540,206,  4,S106
Mk606,220,424718,1,0,549,205,  8,S106
Mk609,220,426360,1,0,549,205,  4,S106
Mk612,220,427986,1,0,554,202, 20,S106
Mk615,221,430393,1,0,553,208, 26,S106
Mk618,220,432149,1,0,546,202, 21,S106
Mk621,220,433797,1,0,565,206, 35,S106
Mk624,220,436185,1,0,548,205, 14,S106
Mk627,220,437814,1,0,552,208, 12,S106
Mk630,220,439461,1,0,549,207, 48,S106
Mk633,220,441759,1,0,538,202, 50,S106
Mk636,221,443377,1,0,548,204, 43,S106
Mk639,220,445058,1,0,550,208, 18,S106
Mk642,220,447420,1,0,541,201, 14,S106
Mk645,220,449040,1,0,548,208, 20,S106
Mk648,220,450728,1,0,548,201,  7,S106
Mk651,220,453014,1,0,542,208, 24,S106
Mk654,220,454647,1,0,559,202, 50,S106
Mk657,220,456257,1,0,548,201,  7,S106
Mk660,220,479827,1,0,540,207, 15,S106
Mk663,220,481372,1,0,543,202, 30,S106
Mk666,220,482934,1,0,539,201, 49,S106
Mk669,221,485323,1,0,552,201,  6,S106
Mk672,220,486903,1,0,537,208,  9,S106
Mk675,220,488482,1,0,540,205, 35,S106
Mk678,220,490827,1,0,539,207, 21,S106
Mk681,220,492415,1,0,552,203, 28,S106
Mk684,221,494049,1,0,540,202, 25,S106
Mk687,220,496488,1,0,542,201, 33,S106
Mk690,220,498080,1,0,554,207, 48,S106
Mk693,220,499690,1,0,539,206,  9,S106
Mk696,220,502055,1,0,545,207,  3,S106
Mk699,220,503660,1,0,554,201, 38,S106
Mk702,220,505270,1,0,539,205, 27,S106
Mk705,220,507500,1,0,531,201,  7,S106
Mk708,220,509050,1,0,531,205, 50,S106
Mk711,220,510801,1,0,574,207,  5,S106
Mk714,220,513142,1,0,544,203, 20,S106
Mk717,220,514779,1,0,547,202, 20,S106
Mk720,220,516357,1,0,562,208, 17,S106
Mk723,220,518665,1,0,558,208, 34,S106
Mk726,220,520319,1,0,553,204,  2,S106
Mk729,220,521932,1,0,541,207,  8,S106
Mk732,220,524208,1,0,542,202, 41,S106
Mk735,220,525824,1,0,557,208, 45,S106
Mk738,220,527416,1,0,549,208, 15,S106
Mk741,220,529754,1,0,554,208, 16,S106
Mk744,220,531312,1,0,541,205,  4,S106
Mk747,220,533016,1,0,562,202, 18,S106
Mk750,221,535360,1,0,547,202,  9,S106
Mk753,220,536949,1,0,540,202, 25,S106
Mk756,220,538690,1,0,552,207, 40,S106
Mk759,220,541043,1,0,538,203, 32,S106
Mk762,220,542629,1,0,549,202, 12,S106
Mk765,220,544172,1,0,554,207, 19,S106
Mk768,220,546502,1,0,542,205, 37,S106
Mk771,220,548140,1,0,551,207,  1,S106
Mk774,220,549675,1,0,540,203, 13,S106
Mk777,220,551903,1,0,539,203,  8,S106
Mk780,220,553445,1,0,551,208, 23,S106
Mk783,220,555150,1,0,560,201, 10,S106
Mk786,220,557522,1,0,553,207,  3,S106
Mk789,220,559166,1,0,555,203, 33,S106
Mk792,220,560713,1,0,552,201,  2,S106
Mk795,220,563038,1,0,539,207, 39,S106
Mk798,220,564654,1,0,559,205,  3,S106
Mk801,221,566251,1,0,556,203, 11,S106
Mk804,220,568555,1,0,539,207,  6,S106
Mk807,220,570143,1,0,539,205, 14,S106
Mk810,220,571721,1,0,559,208, 23,S106
Mk813,220,574088,1,0,550,202,  3,S106
Mk816,220,575697,1,0,547,206, 14,S106
Mk819,220,577348,1,0,552,207,  2,S106
Mk822,220,579691,1,0,557,204, 45,S106
Mk825,220,581202,1,0,551,204, 12,S106
Mk828,220,582825,1,0,541,201, 24,S106
Mk831,220,585151,1,0,554,202, 16,S106
Mk834,220,586800,1,0,540,208, 36,S106
Mk837,220,588303,1,0,552,208, 42,S106
Mk840,220,590625,1,0,540,201, 25,S106
Mk843,220,592256,1,0,546,207, 11,S106
Mk846,220,593782,1,0,542,205, 24,S106
Mk849,220,596139,1,0,553,208, 16,S106
Mk852,220,597690,1,0,554,202, 22,S106
Mk855,221,599257,1,0,542,203, 18,S106
Mk858,220,601637,1,0,551,203, 17,S106
Mk861,220,603295,1,0,563,201, 22,S106
Mk864,220,604891,1,0,546,207,  8,S106
Mk867,220,607209,1,0,547,208, 22,S106
Mk870,220,608844,1,0,545,202, 24,S106
Mk873,220,610491,1,0,541,204, 29,S106
Mk876,220,612787,1,0,541,202,  5,S106
Mk879,220,614436,1,0,553,208, 31,S106
Mk882,220,615989,1,0,564,207, 39,S106
Mk3,221,27073,1,0,542,204,,S107
Mk6,220,28627,1,0,542,202, 19,S107
Mk9,221,30141,1,0,543,204, 28,S107
Mk12,221,32488,1,0,552,201,  7,S107
Mk15,221,33977,1,0,541,204, 31,S107
Mk18,220,35466,1,0,542,202, 12,S107
Mk21,220,37691,1,0,538,207, 19,S107
Mk24,220,39203,1,0,537,201,  7,S107
Mk27,220,40705,1,0,539,202,  4,S107
Mk30,221,43085,1,0,545,208, 35,S107
Mk33,220,44735,1,0,544,201,  5,S107
Mk36,220,46239,1,0,548,201, 36,S107
Mk39,220,48587,1,0,550,202,  5,S107
Mk42,221,50124,1,0,537,208,  9,S107
Mk45,221,51652,1,0,548,203, 35,S107
Mk48,220,53992,1,0,541,201, 20,S107
Mk51,221,55553,1,0,540,205, 49,S107
Mk54,221,57036,1,0,544,204,  2,S107
Mk57,221,59354,1,0,553,204,  8,S107
Mk60,221,60916,1,0,553,201,  2,S107
Mk63,220,62488,1,0,550,202, 23,S107
Mk66,220,64720,1,0,539,207, 32,S107
Mk69,220,66275,1,0,544,202, 48,S107
Mk72,220,67858,1,0,552,201,  6,S107
Mk75,220,70147,1,0,541,202, 29,S107
Mk78,220,71705,1,0,545,207, 41,S107
Mk81,220,73220,1,0,543,203, 26,S107
Mk84,221,75547,1,0,540,206,  7,S107
Mk87,220,77097,1,0,557,202,  1,S107
Mk90,220,78639,1,0,536,201, 11,S107
Mk93,220,80892,1,0,539,208,  3,S107
Mk96,220,82491,1,0,542,208, 50,S107
Mk99,220,84130,1,0,539,201, 45,S107
Mk102,220,86418,1,0,548,207, 20,S107
Mk105,220,87893,1,0,539,201, 47,S107
Mk108,220,89438,1,0,538,204,  9,S107
Mk111,220,91717,1,0,538,201, 21,S107
Mk114,220,93217,1,0,542,203, 25,S107
Mk117,220,94701,1,0,542,208, 19,S107
Mk120,220,96946,1,0,541,202, 29,S107
Mk123,220,98452,1,0,539,201, 43,S107
Mk126,221,99997,1,0,542,207, 26,S107
Mk129,220,102307,1,0,539,204, 14,S107
Mk132,220,103822,1,0,542,201, 22,S107
Mk135,220,105300,1,0,540,201, 24,S107
Mk138,220,107615,1,0,543,208, 43,S107
Mk141,220,109190,1,0,543,202, 43,S107
Mk144,220,110783,1,0,540,202,  7,S107
Mk147,221,113108,1,0,539,203, 42,S107
Mk150,221,114633,1,0,547,207,  4,S107
Mk153,221,116197,1,0,541,206, 21,S107
Mk156,220,118478,1,0,538,208,  6,S107
Mk159,220,120013,1,0,540,202, 14,S107
Mk162,221,121560,1,0,540,205,  1,S107
Mk165,220,123862,1,0,542,207, 19,S107
Mk168,220,125349,1,0,554,202, 22,S107
Mk171,220,126915,1,0,553,204, 26,S107
Mk174,220,129204,1,0,538,206, 13,S107
Mk177,220,130762,1,0,537,208,  8,S107
Mk180,220,132298,1,0,540,207, 33,S107
Mk183,220,134526,1,0,543,205,  5,S107
Mk186,220,136041,1,0,541,206, 21,S107
Mk189,220,137601,1,0,543,203, 10,S107
Mk192,221,139856,1,0,539,208,  3,S107
Mk195,221,141396,1,0,541,202,  3,S107
Mk198,220,142927,1,0,539,208, 14,S107
Mk201,220,145153,1,0,540,207, 23,S107
Mk204,220,146750,1,0,545,208, 20,S107
Mk207,220,148282,1,0,539,205, 10,S107
Mk210,220,150546,1,0,540,205, 11,S107
Mk213,220,152142,1,0,553,205, 18,S107
Mk216,220,153665,1,0,542,205, 13,S107
Mk219,220,155992,1,0,540,206,  6,S107
Mk222,220,157529,1,0,540,202,  9,S107
Mk225,220,159121,1,0,552,202, 10,S107
Mk228,220,164448,1,0,549,208, 29,S107
Mk231,220,166013,1,0,539,206, 31,S107
Mk234,220,167510,1,0,544,204, 25,S107
Mk237,221,169852,1,0,540,201, 20,S107
Mk240,220,171430,1,0,551,204, 32,S107
Mk243,221,172930,1,0,539,205, 25,S107
Mk246,220,175261,1,0,545,204, 15,S107
Mk249,220,176856,1,0,539,207, 24,S107
Mk252,221,178382,1,0,553,204, 24,S107
Mk255,220,180726,1,0,542,205,  3,S107
Mk258,220,182324,1,0,540,204,  3,S107
Mk261,220,183965,1,0,544,208, 10,S107
Mk264,220,186328,1,0,539,207, 28,S107
Mk267,220,187792,1,0,549,203, 13,S107
Mk270,220,189307,1,0,539,206,  6,S107
Mk273,220,191571,1,0,549,207, 21,S107
Mk276,220,193074,1,0,539,203, 38,S107
Mk279,220,194615,1,0,543,201, 18,S107
Mk282,220,196862,1,0,547,201, 41,S107
Mk285,220,198350,1,0,544,208, 28,S107
Mk288,220,199834,1,0,544,201, 22,S107
Mk291,220,202121,1,0,539,202, 22,S107
Mk294,220,203661,1,0,542,208, 45,S107
Mk297,220,205121,1,0,539,203, 44,S107
Mk300,220,207461,1,0,550,207, 25,S107
Mk303,221,208973,1,0,536,208, 37,S107
Mk306,220,210486,1,0,541,203, 41,S107
Mk309,221,212756,1,0,540,206, 14,S107
Mk312,221,214243,1,0,540,208, 15,S107
Mk315,221,215827,1,0,540,207, 17,S107
Mk318,221,218166,1,0,541,202, 31,S107
Mk321,220,219738,1,0,550,202, 13,S107
Mk324,220,221299,1,0,545,207, 30,S107
Mk327,220,223637,1,0,549,203,  1,S107
Mk330,220,225131,1,0,539,202,  5,S107
Mk333,220,226744,1,0,544,207, 25,S107
Mk336,220,229107,1,0,539,207, 17,S107
Mk339,220,230646,1,0,541,205, 49,S107
Mk342,220,232207,1,0,539,204, 20,S107
Mk345,220,234432,1,0,539,202, 16,S107
Mk348,220,236009,1,0,553,201, 37,S107
Mk351,220,237501,1,0,541,206, 16,S107
Mk354,220,239843,1,0,537,201, 23,S107
Mk357,221,241326,1,0,541,206, 40,S107
Mk360,220,242873,1,0,537,206, 11,S107
Mk363,220,245256,1,0,541,201,  5,S107
Mk366,220,246817,1,0,539,205, 30,S107
Mk369,220,248332,1,0,538,201,  8,S107
Mk372,220,250703,1,0,550,207,  8,S107
Mk375,220,252216,1,0,550,201, 12,S107
Mk378,220,253715,1,0,545,201, 42,S107
Mk381,220,256019,1,0,540,205, 10,S107
Mk384,220,257614,1,0,544,206,  1,S107
Mk387,221,259272,1,0,539,208, 14,S107
Mk390,220,261589,1,0,543,202, 27,S107
Mk393,220,263226,1,0,542,207, 16,S107
Mk396,221,264788,1,0,538,208, 39,S107
Mk399,220,267069,1,0,539,208, 20,S107
Mk402,221,268610,1,0,543,207,  9,S107
Mk405,220,270155,1,0,542,203, 28,S107
Mk408,220,272484,1,0,549,206, 24,S107
Mk411,221,274004,1,0,540,202,  4,S107
Mk414,221,275541,1,0,544,201, 21,S107
Mk417,220,277765,1,0,539,201, 18,S107
Mk420,220,279358,1,0,540,206, 19,S107
Mk423,221,280850,1,0,544,205, 20,S107
Mk426,220,283100,1,0,544,205,  7,S107
Mk429,220,284609,1,0,540,208,  9,S107
Mk432,220,286202,1,0,541,202, 26,S107
Mk435,221,288486,1,0,542,201, 12,S107
Mk438,220,290000,1,0,543,204, 35,S107
Mk441,221,291539,1,0,540,206, 17,S107
Mk444,220,293918,1,0,540,207, 24,S107
Mk447,220,295534,1,0,543,207, 18,S107
Mk450,220,297021,1,0,543,202, 15,S107
Mk453,220,302525,1,0,542,201, 27,S107
Mk456,220,304055,1,0,542,207, 21,S107
Mk459,220,305581,1,0,543,207, 10,S107
Mk462,220,307839,1,0,539,208, 41,S107
Mk465,220,309403,1,0,540,207,  2,S107
Mk468,221,310975,1,0,562,206,  6,S107
Mk471,221,313275,1,0,541,204, 12,S107
Mk474,220,314863,1,0,545,207, 18,S107
Mk477,221,316332,1,0,539,205, 44,S107
Mk480,220,318666,1,0,539,205, 16,S107
Mk483,220,320150,1,0,544,208, 23,S107
Mk486,220,321667,1,0,540,207, 18,S107
Mk489,220,323949,1,0,539,207, 42,S107
Mk492,221,325462,1,0,560,208, 40,S107
Mk495,221,327048,1,0,550,203, 46,S107
Mk498,220,329403,1,0,538,208, 15,S107
Mk501,220,330874,1,0,542,208,  6,S107
Mk504,221,332411,1,0,550,208, 30,S107
Mk507,220,334646,1,0,539,205, 11,S107
Mk510,220,336179,1,0,551,207, 14,S107
Mk513,220,337746,1,0,542,202, 25,S107
Mk516,220,340039,1,0,544,207, 38,S107
Mk519,220,341630,1,0,543,202, 19,S107
Mk522,220,343175,1,0,542,201, 47,S107
Mk525,220,345430,1,0,539,202, 47,S107
Mk528,220,347024,1,0,540,205,  8,S107
Mk531,220,348477,1,0,539,202, 22,S107
Mk534,220,350802,1,0,539,202, 15,S107
Mk537,220,352436,1,0,540,207, 44,S107
Mk540,221,353931,1,0,539,208, 27,S107
Mk543,220,356211,1,0,539,202, 38,S107
Mk546,220,357718,1,0,542,208, 49,S107
Mk549,220,359252,1,0,538,201, 15,S107
Mk552,220,361613,1,0,541,208, 12,S107
Mk555,220,363140,1,0,543,203, 48,S107
Mk558,220,364609,1,0,545,201, 10,S107
Mk561,220,366832,1,0,538,208, 37,S107
Mk564,220,368482,1,0,538,202, 13,S107
Mk567,220,369967,1,0,561,202, 34,S107
Mk570,220,372320,1,0,543,202, 36,S107
Mk573,220,373874,1,0,551,202, 23,S107
Mk576,221,375336,1,0,542,206, 46,S107
Mk579,220,377661,1,0,541,207, 18,S107
Mk582,220,379176,1,0,539,206, 45,S107
Mk585,220,380718,1,0,544,208, 22,S107
Mk588,220,383036,1,0,549,207, 47,S107
Mk591,220,384577,1,0,540,201,  2,S107
Mk594,220,386185,1,0,539,207,  6,S107
Mk597,220,388452,1,0,540,202, 32,S107
Mk600,220,389991,1,0,541,207,  4,S107
Mk603,220,391477,1,0,539,201, 34,S107
Mk606,220,393816,1,0,540,208, 46,S107
Mk609,220,395329,1,0,545,201,  1,S107
Mk612,220,396875,1,0,549,201, 48,S107
Mk615,220,399193,1,0,555,208, 45,S107
Mk618,221,400651,1,0,542,205,  4,S107
Mk621,220,402220,1,0,552,204, 12,S107
Mk624,220,404470,1,0,539,201,  1,S107
Mk627,220,406024,1,0,543,205, 50,S107
Mk630,221,407591,1,0,539,202,  5,S107
Mk633,220,409970,1,0,539,208, 40,S107
Mk636,220,411533,1,0,539,201, 12,S107
Mk639,221,413075,1,0,543,203, 17,S107
Mk642,220,415385,1,0,545,204, 17,S107
Mk645,220,416854,1,0,543,201,  6,S107
Mk648,220,418440,1,0,541,202, 11,S107
Mk651,220,420815,1,0,541,208,  3,S107
Mk654,220,422367,1,0,551,208, 40,S107
Mk657,220,423869,1,0,540,201, 16,S107
Mk660,220,426200,1,0,542,202, 33,S107
Mk663,220,427760,1,0,561,207, 18,S107
Mk666,220,429237,1,0,550,201, 30,S107
Mk669,220,431569,1,0,544,201,  2,S107
Mk672,220,433100,1,0,541,203, 15,S107
Mk675,220,434586,1,0,548,208, 23,S107
Mk678,220,440576,1,0,558,201, 21,S107
Mk681,220,442137,1,0,540,201, 14,S107
Mk684,220,443645,1,0,544,201, 38,S107
Mk687,220,445924,1,0,543,202, 13,S107
Mk690,220,447486,1,0,539,208, 33,S107
Mk693,220,448954,1,0,544,201, 25,S107
Mk696,220,451269,1,0,550,206, 34,S107
Mk699,220,452845,1,0,539,206,  2,S107
Mk702,220,454431,1,0,541,208, 19,S107
Mk705,220,456801,1,0,540,203,  7,S107
Mk708,220,458467,1,0,543,202,  9,S107
Mk711,220,460040,1,0,541,203,  5,S107
Mk714,221,462343,1,0,540,207, 22,S107
Mk717,220,463919,1,0,541,204, 23,S107
Mk720,220,465482,1,0,541,203,  4,S107
Mk723,220,467738,1,0,539,207,  1,S107
Mk726,220,469255,1,0,538,208, 43,S107
Mk729,220,470876,1,0,543,208, 24,S107
Mk732,220,473149,1,0,545,205, 19,S107
Mk735,220,474715,1,0,548,207,  4,S107
Mk738,220,476315,1,0,544,204, 50,S107
Mk741,220,478598,1,0,539,206,  9,S107
Mk744,220,480171,1,0,542,207,  7,S107
Mk747,220,481679,1,0,541,207,  3,S107
Mk750,220,483911,1,0,539,202, 35,S107
Mk753,220,485441,1,0,540,203, 48,S107
Mk756,220,486958,1,0,540,208, 16,S107
Mk759,220,489218,1,0,550,205, 39,S107
Mk762,220,490805,1,0,545,203, 24,S107
Mk765,220,492277,1,0,538,203,  8,S107
Mk768,220,494510,1,0,541,201, 12,S107
Mk771,221,496030,1,0,540,206, 44,S107
Mk774,220,497547,1,0,541,202,  3,S107
Mk777,220,499829,1,0,560,201, 17,S107
Mk780,220,501349,1,0,542,207,  1,S107
Mk783,220,502927,1,0,549,202, 16,S107
Mk786,221,505265,1,0,541,204,  2,S107
Mk789,220,506827,1,0,540,204, 14,S107
Mk792,220,508348,1,0,540,202,  5,S107
Mk795,220,510593,1,0,539,207, 39,S107
Mk798,220,512167,1,0,538,202,  4,S107
Mk801,221,513634,1,0,543,205, 50,S107
Mk804,220,515945,1,0,541,208, 17,S107
Mk807,220,517402,1,0,539,201,  8,S107
Mk810,220,518957,1,0,540,208, 27,S107
Mk813,220,521234,1,0,554,202, 42,S107
Mk816,220,522836,1,0,540,203, 31,S107
Mk819,220,524399,1,0,552,208, 21,S107
Mk822,220,526684,1,0,545,208, 37,S107
Mk825,221,528143,1,0,538,207, 49,S107
Mk828,220,529608,1,0,544,203, 46,S107
Mk831,220,531919,1,0,543,204, 11,S107
Mk834,220,533496,1,0,540,207, 11,S107
Mk837,220,535083,1,0,539,202,  8,S107
Mk840,220,537470,1,0,543,206, 24,S107
Mk843,220,538963,1,0,544,205, 16,S107
Mk846,220,540530,1,0,540,207, 10,S107
Mk849,220,542841,1,0,538,202, 36,S107
Mk852,221,544443,1,0,544,208, 20,S107
Mk855,220,545951,1,0,540,203, 36,S107
Mk858,220,548209,1,0,543,204,  2,S107
Mk861,220,549713,1,0,543,202, 15,S107
Mk864,220,551209,1,0,543,208, 22,S107
Mk867,220,553506,1,0,540,207, 32,S107
Mk870,220,555027,1,0,540,207, 33,S107
Mk873,220,556639,1,0,543,203,  9,S107
Mk876,220,558891,1,0,541,204, 13,S107
Mk879,221,560447,1,0,555,207, 23,S107
Mk882,221,562009,1,0,554,201, 29,S107
Mk885,220,564336,1,0,539,205,  7,S107
Mk888,221,565915,1,0,539,206, 25,S107
Mk891,220,567425,1,0,541,201, 17,S107
Mk894,220,569733,1,0,544,208, 39,S107
Mk897,220,571234,1,0,541,206, 34,S107
Mk900,220,572796,1,0,540,207, 13,S107
Mk3,221,13124,1,0,550,206,,S108
Mk6,220,14675,1,0,555,206, 16,S108
Mk9,221,16268,1,0,540,203,  6,S108
Mk12,220,18648,1,0,540,208, 15,S108
Mk15,221,20258,1,0,562,207, 24,S108
Mk18,220,21873,1,0,540,207, 23,S108
Mk21,220,24236,1,0,540,208, 26,S108
Mk24,220,25864,1,0,551,208,  2,S108
Mk27,221,27489,1,0,551,205, 17,S108
Mk30,220,29853,1,0,540,201, 18,S108
Mk33,220,31431,1,0,551,204,  9,S108
Mk36,220,33007,1,0,539,207,  3,S108
Mk39,220,35298,1,0,539,205, 48,S108
Mk42,220,36849,1,0,539,202, 16,S108
Mk45,220,38489,1,0,546,203, 26,S108
Mk48,220,40802,1,0,542,202, 11,S108
Mk51,220,42436,1,0,542,203, 29,S108
Mk54,220,44011,1,0,542,202, 10,S108
Mk57,220,46366,1,0,543,202, 33,S108
Mk60,220,47867,1,0,548,204, 34,S108
Mk63,220,49412,1,0,563,201, 22,S108
Mk66,220,51697,1,0,540,205, 47,S108
Mk69,220,53221,1,0,543,201,  1,S108
Mk72,220,54771,1,0,555,201, 41,S108
Mk75,220,57175,1,0,551,203,  7,S108
Mk78,221,58674,1,0,533,205,  8,S108
Mk81,220,60175,1,0,542,206,  7,S108
Mk84,220,62481,1,0,556,205, 20,S108
Mk87,220,64035,1,0,544,202, 12,S108
Mk90,220,65635,1,0,552,204,  3,S108
Mk93,220,67935,1,0,543,208, 20,S108
Mk96,220,69483,1,0,553,208, 11,S108
Mk99,221,71107,1,0,540,202,  3,S108
Mk102,220,73476,1,0,554,208,  2,S108
Mk105,220,75115,1,0,552,202, 33,S108
Mk108,220,76762,1,0,540,207, 14,S108
Mk111,220,79133,1,0,561,201, 37,S108
Mk114,220,80746,1,0,544,205, 35,S108
Mk117,220,82452,1,0,546,207,  5,S108
Mk120,221,84836,1,0,551,208, 25,S108
Mk123,220,86477,1,0,541,202, 28,S108
Mk126,220,88067,1,0,540,208, 21,S108
Mk129,220,90384,1,0,540,208, 41,S108
Mk132,220,91983,1,0,539,207, 18,S108
Mk135,220,93517,1,0,539,203, 28,S108
Mk138,220,95774,1,0,567,205,  1,S108
Mk141,220,97285,1,0,540,202, 22,S108
Mk144,220,98797,1,0,556,208, 22,S108
Mk147,220,101110,1,0,540,204, 32,S108
Mk150,220,102789,1,0,548,207, 14,S108
Mk153,220,104319,1,0,549,204, 40,S108
Mk156,220,106623,1,0,540,204, 23,S108
Mk159,221,108111,1,0,561,207, 25,S108
Mk162,220,109659,1,0,546,204,  8,S108
