Marker,response_trig,TimeMS,Size,ChanNum,RT,word_trig,cond_trig,subject_nr
Mk4,S221,138914,1,0,1221,13,206,S201
Mk7,S221,142113,1,0,117,50,207,S201
Mk10,S221,146279,1,0,1220,38,201,S201
Mk13,S220,151657,1,0,980,18,202,S201
Mk16,S220,155361,1,0,704,23,202,S201
Mk19,S220,159201,1,0,837,13,202,S201
Mk22,S220,164281,1,0,649,24,202,S201
Mk25,S220,167953,1,0,597,25,207,S201
Mk28,S220,171770,1,0,775,43,208,S201
Mk31,S220,177145,1,0,807,1,205,S201
Mk34,S220,181090,1,0,990,26,201,S201
Mk37,S220,184682,1,0,700,29,208,S201
Mk40,S220,189746,1,0,713,43,202,S201
Mk43,S220,193378,1,0,777,35,208,S201
Mk46,S220,197074,1,0,779,17,206,S201
Mk49,S221,202745,1,0,1220,3,205,S201
Mk52,S220,206442,1,0,742,33,207,S201
Mk55,S220,210106,1,0,707,2,208,S201
Mk58,S220,215435,1,0,776,10,204,S201
Mk61,S221,219704,1,0,1219,32,202,S201
Mk64,S220,223267,1,0,722,38,208,S201
Mk67,S221,228884,1,0,1221,6,204,S201
Mk70,S220,232354,1,0,621,40,202,S201
Mk73,S220,236291,1,0,888,16,208,S201
Mk76,S220,241467,1,0,751,13,208,S201
Mk79,S220,245611,1,0,1140,44,201,S201
Mk82,S220,249539,1,0,1029,13,205,S201
Mk85,S220,254795,1,0,748,49,201,S201
Mk88,S220,258364,1,0,559,38,207,S201
Mk91,S220,261931,1,0,663,45,207,S201
Mk94,S221,267496,1,0,1221,3,204,S201
Mk97,S220,271491,1,0,917,23,204,S201
Mk100,S220,275147,1,0,774,6,201,S201
Mk103,S220,280404,1,0,684,9,208,S201
Mk106,S220,284100,1,0,798,46,208,S201
Mk109,S220,288308,1,0,1165,20,206,S201
Mk112,S221,293908,1,0,1221,33,201,S201
Mk115,S220,297780,1,0,828,37,208,S201
Mk118,S220,301396,1,0,686,30,208,S201
Mk121,S221,306971,1,0,1220,14,203,S201
Mk124,S220,310700,1,0,833,1,206,S201
Mk127,S221,314865,1,0,1220,42,201,S201
Mk130,S220,320124,1,0,837,7,206,S201
Mk133,S220,323901,1,0,762,24,207,S201
Mk136,S220,327589,1,0,788,50,208,S201
Mk139,S220,332916,1,0,780,3,206,S201
Mk142,S220,336821,1,0,955,4,204,S201
Mk145,S220,340581,1,0,709,10,207,S201
Mk148,S220,345725,1,0,789,18,208,S201
Mk151,S220,349837,1,0,1157,24,204,S201
Mk154,S220,353701,1,0,864,12,207,S201
Mk157,S220,358853,1,0,722,44,207,S201
Mk160,S221,362921,1,0,1220,8,201,S201
Mk163,S221,367133,1,0,1220,28,202,S201
Mk166,S221,372817,1,0,1221,16,207,S201
Mk169,S220,376557,1,0,688,29,202,S201
Mk172,S220,380293,1,0,685,47,201,S201
Mk175,S220,385710,1,0,996,30,201,S201
Mk178,S220,389350,1,0,594,43,207,S201
Mk181,S220,393190,1,0,940,19,203,S201
Mk184,S220,398246,1,0,688,16,201,S201
Mk187,S221,402182,1,0,1036,48,202,S201
Mk190,S220,405750,1,0,614,22,202,S201
Mk193,S220,411222,1,0,1071,25,206,S201
Mk196,S220,414862,1,0,727,37,201,S201
Mk199,S220,418662,1,0,947,12,204,S201
Mk202,S220,424207,1,0,1123,7,202,S201
Mk205,S220,427942,1,0,733,22,208,S201
Mk208,S221,432028,1,0,1220,4,202,S201
Mk211,S220,437079,1,0,589,19,201,S201
Mk214,S220,440783,1,0,649,45,202,S201
Mk217,S221,445027,1,0,1221,41,207,S201
Mk220,S220,450647,1,0,1203,32,207,S201
Mk223,S220,454631,1,0,1124,25,205,S201
Mk226,S220,458431,1,0,746,28,207,S201
Mk229,S221,472273,1,0,1221,27,202,S201
Mk232,S220,475863,1,0,700,3,202,S201
Mk235,S220,479663,1,0,748,21,203,S201
Mk238,S220,484872,1,0,704,39,202,S201
Mk241,S220,488903,1,0,1132,23,207,S201
Mk244,S220,492584,1,0,642,39,207,S201
Mk247,S220,497680,1,0,576,42,207,S201
Mk250,S220,501240,1,0,597,5,201,S201
Mk253,S220,505072,1,0,787,21,202,S201
Mk256,S220,510312,1,0,795,23,206,S201
Mk259,S220,514312,1,0,960,21,205,S201
Mk262,S220,517976,1,0,720,28,208,S201
Mk265,S220,523536,1,0,1009,21,208,S201
Mk268,S220,527728,1,0,1144,18,203,S201
Mk271,S220,531809,1,0,1066,14,201,S201
Mk274,S220,536944,1,0,661,19,207,S201
Mk277,S221,540896,1,0,889,31,202,S201
Mk280,S220,544585,1,0,684,17,207,S201
Mk283,S221,550309,1,0,1221,8,203,S201
Mk286,S220,553801,1,0,636,10,202,S201
Mk289,S220,557665,1,0,847,9,203,S201
Mk292,S220,563161,1,0,932,4,205,S201
Mk295,S221,567429,1,0,1221,24,203,S201
Mk298,S220,571457,1,0,1038,11,206,S201
Mk301,S220,576978,1,0,1006,18,205,S201
Mk304,S220,580906,1,0,891,49,202,S201
Mk307,S220,584633,1,0,845,38,202,S201
Mk310,S221,590265,1,0,1164,7,204,S201
Mk313,S220,594218,1,0,879,17,204,S201
Mk316,S220,597826,1,0,654,1,207,S201
Mk319,S220,602970,1,0,592,13,207,S201
Mk322,S220,606394,1,0,580,34,201,S201
Mk325,S220,610490,1,0,1150,22,203,S201
Mk328,S220,615786,1,0,792,4,203,S201
Mk331,S220,619602,1,0,831,26,202,S201
Mk334,S220,623330,1,0,719,4,208,S201
Mk337,S220,628587,1,0,913,32,201,S201
Mk340,S220,632618,1,0,1035,22,205,S201
Mk343,S220,636114,1,0,658,46,202,S201
Mk346,S220,641322,1,0,857,17,205,S201
Mk349,S220,644987,1,0,720,5,206,S201
Mk352,S221,649208,1,0,1221,25,203,S201
Mk355,S221,654951,1,0,1221,22,206,S201
Mk358,S220,658675,1,0,721,34,207,S201
Mk361,S220,662291,1,0,658,4,201,S201
Mk364,S220,667443,1,0,697,33,208,S201
Mk367,S220,671139,1,0,695,5,207,S201
Mk370,S220,674611,1,0,638,27,207,S201
Mk373,S220,679771,1,0,800,3,208,S201
Mk376,S220,683795,1,0,1023,43,201,S201
Mk379,S220,687563,1,0,762,9,206,S201
Mk382,S220,692883,1,0,688,4,207,S201
Mk385,S220,696932,1,0,1090,20,203,S201
Mk388,S220,700652,1,0,714,49,207,S201
Mk391,S220,705644,1,0,589,18,201,S201
Mk394,S220,709220,1,0,727,15,208,S201
Mk397,S220,712876,1,0,656,14,207,S201
Mk400,S220,717996,1,0,618,46,207,S201
Mk403,S220,721996,1,0,1139,12,201,S201
Mk406,S220,725700,1,0,657,48,201,S201
Mk409,S220,731012,1,0,792,2,205,S201
Mk412,S220,734652,1,0,780,39,208,S201
Mk415,S220,738245,1,0,749,16,204,S201
Mk418,S220,743181,1,0,570,20,207,S201
Mk421,S220,746773,1,0,548,20,202,S201
Mk424,S220,750725,1,0,885,19,206,S201
Mk427,S220,755741,1,0,605,8,202,S201
Mk430,S220,759846,1,0,1053,13,204,S201
Mk433,S220,763501,1,0,710,25,201,S201
Mk436,S220,768421,1,0,576,21,207,S201
Mk439,S220,772117,1,0,658,12,202,S201
Mk442,S220,776037,1,0,1019,5,204,S201
Mk445,S220,781157,1,0,657,50,202,S201
Mk448,S220,784957,1,0,951,12,208,S201
Mk451,S220,788557,1,0,653,6,207,S201
Mk454,S220,814118,1,0,739,1,202,S201
Mk457,S221,817854,1,0,742,18,204,S201
Mk460,S220,821542,1,0,635,10,208,S201
Mk463,S221,826958,1,0,919,35,201,S201
Mk466,S220,830486,1,0,627,15,206,S201
Mk469,S220,833902,1,0,554,9,202,S201
Mk472,S221,839254,1,0,847,2,202,S201
Mk475,S220,842838,1,0,593,8,207,S201
Mk478,S220,846622,1,0,755,8,206,S201
Mk481,S221,851911,1,0,826,15,201,S201
Mk484,S220,855383,1,0,619,17,202,S201
Mk487,S220,858823,1,0,543,17,201,S201
Mk490,S220,864159,1,0,831,13,201,S201
Mk493,S220,867935,1,0,885,16,206,S201
Mk496,S220,871487,1,0,663,34,208,S201
Mk499,S220,876784,1,0,902,2,203,S201
Mk502,S220,880303,1,0,685,31,201,S201
Mk505,S221,884422,1,0,1220,16,203,S201
Mk508,S221,890073,1,0,1220,21,204,S201
Mk511,S220,893728,1,0,713,29,201,S201
Mk514,S220,897127,1,0,510,2,207,S201
Mk517,S220,902432,1,0,795,14,202,S201
Mk520,S220,906208,1,0,769,7,205,S201
Mk523,S220,909704,1,0,653,47,202,S201
Mk526,S220,914960,1,0,798,16,205,S201
Mk529,S220,918576,1,0,626,25,204,S201
Mk532,S220,922200,1,0,776,44,202,S201
Mk535,S220,927520,1,0,769,20,204,S201
Mk538,S220,931072,1,0,606,9,207,S201
Mk541,S220,934688,1,0,602,37,207,S201
Mk544,S220,939848,1,0,765,36,207,S201
Mk547,S220,943600,1,0,817,19,205,S201
Mk550,S220,947585,1,0,1088,35,202,S201
Mk553,S220,952793,1,0,647,40,207,S201
Mk556,S220,956505,1,0,813,36,208,S201
Mk559,S220,960209,1,0,813,2,204,S201
Mk562,S220,965201,1,0,599,7,207,S201
Mk565,S220,968825,1,0,731,26,208,S201
Mk568,S221,973071,1,0,1221,5,203,S201
Mk571,S220,978073,1,0,587,36,201,S201
Mk574,S220,981746,1,0,782,25,208,S201
Mk577,S220,985201,1,0,613,19,202,S201
Mk580,S220,990410,1,0,853,46,201,S201
Mk583,S220,994337,1,0,932,19,204,S201
Mk586,S220,998386,1,0,1093,11,204,S201
Mk589,S220,1003610,1,0,715,10,201,S201
Mk592,S220,1007570,1,0,937,20,205,S201
Mk595,S220,1011202,1,0,691,27,208,S201
Mk598,S220,1016338,1,0,673,24,206,S201
Mk601,S221,1020601,1,0,1221,9,201,S201
Mk604,S220,1024274,1,0,728,10,206,S201
Mk607,S220,1029642,1,0,917,7,201,S201
Mk610,S220,1033434,1,0,744,5,205,S201
Mk613,S220,1037347,1,0,867,32,208,S201
Mk616,S220,1042379,1,0,549,50,201,S201
Mk619,S220,1046050,1,0,730,17,208,S201
Mk622,S221,1050026,1,0,938,19,208,S201
Mk625,S220,1055059,1,0,660,23,201,S201
Mk628,S220,1059043,1,0,992,41,208,S201
Mk631,S220,1063091,1,0,1088,6,206,S201
Mk634,S220,1068227,1,0,672,2,201,S201
Mk637,S220,1072091,1,0,798,13,203,S201
Mk640,S220,1076075,1,0,1144,15,202,S201
Mk643,S220,1081275,1,0,634,24,208,S201
Mk646,S220,1085083,1,0,768,31,207,S201
Mk649,S220,1089107,1,0,1020,41,202,S201
Mk652,S220,1094555,1,0,994,36,202,S201
Mk655,S220,1098371,1,0,727,14,208,S201
Mk658,S220,1102196,1,0,828,12,206,S201
Mk661,S220,1107452,1,0,759,45,201,S201
Mk664,S220,1111452,1,0,1000,3,201,S201
Mk667,S220,1115100,1,0,736,3,203,S201
Mk670,S221,1120718,1,0,1222,25,202,S201
Mk673,S220,1124596,1,0,883,42,208,S201
Mk676,S220,1128284,1,0,834,5,202,S201
Mk679,S221,1157707,1,0,1222,34,202,S201
Mk682,S220,1161581,1,0,1030,6,205,S201
Mk685,S220,1165725,1,0,1103,24,205,S201
Mk688,S220,1171101,1,0,893,5,208,S201
Mk691,S220,1174965,1,0,799,40,201,S201
Mk694,S220,1178581,1,0,760,8,208,S201
Mk697,S220,1183517,1,0,568,12,205,S201
Mk700,S220,1187046,1,0,580,11,205,S201
Mk703,S220,1190533,1,0,587,9,205,S201
Mk706,S220,1195525,1,0,537,31,208,S201
Mk709,S221,1199069,1,0,553,11,207,S201
Mk712,S220,1202902,1,0,786,20,208,S201
Mk715,S220,1208134,1,0,789,11,203,S201
Mk718,S220,1211678,1,0,609,48,207,S201
Mk721,S220,1215214,1,0,625,29,207,S201
Mk724,S220,1220182,1,0,524,35,207,S201
Mk727,S220,1223702,1,0,679,6,202,S201
Mk730,S220,1227534,1,0,890,21,206,S201
Mk733,S220,1232750,1,0,803,23,205,S201
Mk736,S220,1236326,1,0,736,42,202,S201
Mk739,S220,1240118,1,0,738,6,208,S201
Mk742,S221,1245690,1,0,1222,15,204,S201
Mk745,S220,1249334,1,0,734,23,203,S201
Mk748,S220,1252831,1,0,648,16,202,S201
Mk751,S220,1257863,1,0,579,3,207,S201
Mk754,S220,1261447,1,0,631,33,202,S201
Mk757,S220,1265191,1,0,703,15,205,S201
Mk760,S220,1270415,1,0,673,21,201,S201
Mk763,S221,1274584,1,0,1222,9,204,S201
Mk766,S220,1278407,1,0,874,10,205,S201
Mk769,S220,1283639,1,0,709,30,207,S201
Mk772,S220,1287183,1,0,709,44,208,S201
Mk775,S220,1291031,1,0,998,11,208,S201
Mk778,S220,1296367,1,0,975,47,208,S201
Mk781,S220,1299903,1,0,566,30,202,S201
Mk784,S220,1303520,1,0,618,45,208,S201
Mk787,S220,1308776,1,0,707,10,203,S201
Mk790,S220,1312224,1,0,607,23,208,S201
Mk793,S220,1315776,1,0,682,49,208,S201
Mk796,S221,1321000,1,0,863,11,201,S201
Mk799,S220,1324920,1,0,919,1,201,S201
Mk802,S220,1328416,1,0,547,20,201,S201
Mk805,S220,1333480,1,0,616,41,201,S201
Mk808,S220,1337032,1,0,710,48,208,S201
Mk811,S220,1340912,1,0,921,22,207,S201
Mk814,S221,1346619,1,0,1222,1,203,S201
Mk817,S220,1350257,1,0,799,37,202,S201
Mk820,S220,1354001,1,0,705,28,201,S201
Mk823,S220,1359008,1,0,614,15,207,S201
Mk826,S220,1362705,1,0,805,18,207,S201
Mk829,S220,1366441,1,0,676,39,201,S201
Mk832,S220,1371425,1,0,491,27,201,S201
Mk835,S220,1375577,1,0,1162,2,206,S201
Mk838,S221,1379869,1,0,1222,1,204,S201
Mk841,S220,1384825,1,0,539,22,201,S201
Mk844,S220,1388713,1,0,992,7,208,S201
Mk847,S220,1392665,1,0,914,4,206,S201
Mk850,S220,1397769,1,0,635,40,208,S201
Mk853,S220,1401441,1,0,827,14,204,S201
Mk856,S220,1405129,1,0,637,11,202,S201
Mk859,S220,1410122,1,0,554,47,207,S201
Mk862,S220,1414074,1,0,1113,17,203,S201
Mk865,S221,1418042,1,0,968,15,203,S201
Mk868,S220,1423474,1,0,872,22,204,S201
Mk871,S220,1427242,1,0,829,1,208,S201
Mk874,S220,1431234,1,0,1031,6,203,S201
Mk877,S220,1436386,1,0,788,8,205,S201
Mk880,S220,1439930,1,0,703,12,203,S201
Mk883,S220,1443498,1,0,705,8,204,S201
Mk886,S220,1448706,1,0,706,7,203,S201
Mk889,S221,1452563,1,0,814,26,207,S201
Mk892,S220,1456282,1,0,777,14,206,S201
Mk895,S221,1461835,1,0,1051,24,201,S201
Mk898,S220,1465491,1,0,807,14,205,S201
Mk901,S220,1469163,1,0,729,18,206,S201
Mk4,S221,46335,1,0,1221,20,207,S202
Mk7,S220,50354,1,0,956,1,205,S202
Mk10,S220,54538,1,0,1197,11,205,S202
Mk13,S220,59610,1,0,634,4,201,S202
Mk16,S220,63259,1,0,702,6,207,S202
Mk19,S220,67363,1,0,1191,17,206,S202
Mk22,S220,72739,1,0,897,49,202,S202
Mk25,S220,76499,1,0,864,8,205,S202
Mk28,S220,80115,1,0,764,17,201,S202
Mk31,S220,85419,1,0,795,32,208,S202
Mk34,S221,89594,1,0,1221,8,206,S202
Mk37,S220,93347,1,0,809,17,202,S202
Mk40,S220,98411,1,0,665,17,207,S202
Mk43,S220,102075,1,0,667,5,208,S202
Mk46,S220,105843,1,0,716,31,207,S202
Mk49,S220,110996,1,0,648,35,202,S202
Mk52,S220,114612,1,0,543,50,201,S202
Mk55,S220,118060,1,0,496,30,207,S202
Mk58,S220,123108,1,0,665,25,208,S202
Mk61,S220,126492,1,0,498,10,201,S202
Mk64,S220,130268,1,0,770,41,208,S202
Mk67,S220,135324,1,0,566,26,207,S202
Mk70,S220,138948,1,0,661,7,205,S202
Mk73,S220,142556,1,0,729,22,203,S202
Mk76,S220,147636,1,0,550,7,202,S202
Mk79,S220,151332,1,0,694,14,202,S202
Mk82,S220,154908,1,0,565,45,202,S202
Mk85,S220,159884,1,0,467,8,202,S202
Mk88,S220,163660,1,0,727,16,203,S202
Mk91,S220,167300,1,0,691,18,208,S202
Mk94,S220,172269,1,0,516,36,201,S202
Mk97,S220,175637,1,0,468,9,207,S202
Mk100,S220,179245,1,0,578,49,201,S202
Mk103,S220,184501,1,0,687,20,203,S202
Mk106,S221,188605,1,0,1093,35,201,S202
Mk109,S220,192093,1,0,575,40,202,S202
Mk112,S220,197197,1,0,550,5,207,S202
Mk115,S220,200549,1,0,503,27,207,S202
Mk118,S220,203989,1,0,583,16,202,S202
Mk121,S220,208957,1,0,495,15,202,S202
Mk124,S220,212470,1,0,468,50,202,S202
Mk127,S220,215974,1,0,630,21,204,S202
Mk130,S220,221134,1,0,681,40,208,S202
Mk133,S220,224646,1,0,659,6,205,S202
Mk136,S220,228326,1,0,606,9,203,S202
Mk139,S220,233486,1,0,592,16,205,S202
Mk142,S220,237486,1,0,984,24,203,S202
Mk145,S221,241705,1,0,1220,15,203,S202
Mk148,S220,246846,1,0,540,16,201,S202
Mk151,S220,250606,1,0,836,9,208,S202
Mk154,S220,254158,1,0,653,12,204,S202
Mk157,S220,259078,1,0,519,7,207,S202
Mk160,S220,262694,1,0,715,25,206,S202
Mk163,S220,266254,1,0,638,13,205,S202
Mk166,S220,271215,1,0,507,48,207,S202
Mk169,S220,274831,1,0,696,12,202,S202
Mk172,S220,278191,1,0,469,38,207,S202
Mk175,S220,283343,1,0,746,13,208,S202
Mk178,S220,287295,1,0,930,17,203,S202
Mk181,S220,290927,1,0,639,17,208,S202
Mk184,S220,296087,1,0,610,6,208,S202
Mk187,S220,299511,1,0,573,15,204,S202
Mk190,S220,302936,1,0,530,24,204,S202
Mk193,S220,307991,1,0,548,9,206,S202
Mk196,S220,311472,1,0,483,37,208,S202
Mk199,S220,315016,1,0,634,26,202,S202
Mk202,S220,320240,1,0,706,2,202,S202
Mk205,S220,324024,1,0,786,43,201,S202
Mk208,S220,327641,1,0,598,12,201,S202
Mk211,S220,332840,1,0,647,39,208,S202
Mk214,S220,336344,1,0,660,41,201,S202
Mk217,S220,339760,1,0,546,43,202,S202
Mk220,S220,344848,1,0,737,4,203,S202
Mk223,S220,348528,1,0,720,43,208,S202
Mk226,S220,352632,1,0,1053,14,206,S202
Mk229,S221,366113,1,0,1221,5,206,S202
Mk232,S221,369720,1,0,612,19,202,S202
Mk235,S220,373321,1,0,737,22,208,S202
Mk238,S220,378193,1,0,466,24,202,S202
Mk241,S220,381889,1,0,628,5,204,S202
Mk244,S220,385377,1,0,526,30,202,S202
Mk247,S221,391107,1,0,1220,13,203,S202
Mk250,S220,394481,1,0,522,22,202,S202
Mk253,S220,397913,1,0,522,40,201,S202
Mk256,S220,402969,1,0,692,46,208,S202
Mk259,S220,406506,1,0,487,13,207,S202
Mk262,S220,409961,1,0,609,3,203,S202
Mk265,S220,414801,1,0,439,27,201,S202
Mk268,S220,418601,1,0,881,9,205,S202
Mk271,S220,422122,1,0,567,47,201,S202
Mk274,S220,427058,1,0,540,20,202,S202
Mk277,S220,431178,1,0,1045,24,206,S202
Mk280,S220,434706,1,0,485,47,207,S202
Mk283,S220,439714,1,0,638,1,203,S202
Mk286,S220,443274,1,0,656,1,204,S202
Mk289,S220,446770,1,0,550,29,201,S202
Mk292,S220,451826,1,0,653,38,201,S202
Mk295,S220,455346,1,0,660,32,207,S202
Mk298,S220,458939,1,0,726,11,208,S202
Mk301,S220,463714,1,0,429,38,202,S202
Mk304,S220,467402,1,0,789,11,201,S202
Mk307,S220,471275,1,0,866,12,206,S202
Mk310,S220,476355,1,0,566,20,201,S202
Mk313,S220,480139,1,0,833,21,201,S202
Mk316,S220,483795,1,0,696,12,207,S202
Mk319,S220,488947,1,0,740,13,202,S202
Mk322,S220,492587,1,0,743,2,201,S202
Mk325,S220,496203,1,0,556,21,203,S202
Mk328,S220,501875,1,0,1161,42,201,S202
Mk331,S220,505379,1,0,599,13,201,S202
Mk334,S220,508908,1,0,633,23,201,S202
Mk337,S220,514019,1,0,610,7,203,S202
Mk340,S221,518294,1,0,1221,31,201,S202
Mk343,S220,521899,1,0,707,14,203,S202
Mk346,S220,527068,1,0,758,35,208,S202
Mk349,S220,530548,1,0,574,10,203,S202
Mk352,S220,533996,1,0,601,41,207,S202
Mk355,S221,539076,1,0,685,25,205,S202
Mk358,S220,542692,1,0,568,34,202,S202
Mk361,S220,546060,1,0,519,5,201,S202
Mk364,S220,551116,1,0,489,11,202,S202
Mk367,S220,554741,1,0,718,25,204,S202
Mk370,S221,558819,1,0,1220,24,201,S202
Mk373,S220,563964,1,0,780,19,203,S202
Mk376,S220,567613,1,0,800,2,205,S202
Mk379,S220,571293,1,0,835,3,207,S202
Mk382,S220,576469,1,0,703,28,208,S202
Mk385,S220,580309,1,0,787,20,206,S202
Mk388,S220,583949,1,0,804,48,202,S202
Mk391,S220,589085,1,0,670,21,206,S202
Mk394,S220,592613,1,0,632,19,204,S202
Mk397,S220,596237,1,0,682,10,207,S202
Mk400,S220,601246,1,0,661,10,208,S202
Mk403,S220,604933,1,0,652,3,205,S202
Mk406,S220,608805,1,0,922,9,201,S202
Mk409,S220,613925,1,0,646,29,202,S202
Mk412,S221,617542,1,0,567,19,206,S202
Mk415,S220,621229,1,0,776,7,204,S202
Mk418,S220,626350,1,0,571,2,207,S202
Mk421,S221,630605,1,0,1221,42,202,S202
Mk424,S220,634286,1,0,643,19,201,S202
Mk427,S220,639494,1,0,648,4,204,S202
Mk430,S220,643343,1,0,800,50,208,S202
Mk433,S220,646982,1,0,589,21,202,S202
Mk436,S220,652110,1,0,641,25,203,S202
Mk439,S220,655750,1,0,615,11,203,S202
Mk442,S220,659566,1,0,855,4,206,S202
Mk445,S220,664622,1,0,596,30,208,S202
Mk448,S221,668534,1,0,1053,28,202,S202
Mk451,S220,672463,1,0,977,24,205,S202
Mk454,S221,688421,1,0,1221,13,204,S202
Mk457,S220,691935,1,0,569,14,207,S202
Mk460,S220,695495,1,0,564,14,201,S202
Mk463,S220,700727,1,0,778,18,207,S202
Mk466,S221,704727,1,0,951,23,205,S202
Mk469,S220,708175,1,0,587,18,201,S202
Mk472,S220,713351,1,0,825,15,206,S202
Mk475,S220,716847,1,0,626,37,201,S202
Mk478,S220,720191,1,0,492,37,202,S202
Mk481,S220,725736,1,0,973,39,202,S202
Mk484,S220,729760,1,0,1108,11,204,S202
Mk487,S220,733328,1,0,570,10,202,S202
Mk490,S220,738304,1,0,478,33,207,S202
Mk493,S220,742048,1,0,769,3,206,S202
Mk496,S220,745552,1,0,557,1,202,S202
Mk499,S220,750896,1,0,835,5,205,S202
Mk502,S220,754640,1,0,695,29,208,S202
Mk505,S220,758056,1,0,566,15,207,S202
Mk508,S220,763185,1,0,706,23,208,S202
Mk511,S220,766584,1,0,556,1,207,S202
Mk514,S220,770225,1,0,575,44,201,S202
Mk517,S220,775313,1,0,682,26,208,S202
Mk520,S220,778888,1,0,550,18,202,S202
Mk523,S220,782481,1,0,587,3,201,S202
Mk526,S220,787354,1,0,476,21,207,S202
Mk529,S220,791249,1,0,802,8,201,S202
Mk532,S220,794921,1,0,662,4,208,S202
Mk535,S220,800505,1,0,1203,13,206,S202
Mk538,S220,804169,1,0,602,8,203,S202
Mk541,S220,807537,1,0,524,42,207,S202
Mk544,S220,812625,1,0,634,23,204,S202
Mk547,S220,816146,1,0,629,17,204,S202
Mk550,S220,819705,1,0,608,7,206,S202
Mk553,S220,824697,1,0,499,11,207,S202
Mk556,S220,828738,1,0,977,15,201,S202
Mk559,S220,832138,1,0,551,34,201,S202
Mk562,S220,837226,1,0,628,15,205,S202
Mk565,S220,840914,1,0,637,49,207,S202
Mk568,S220,844402,1,0,585,8,204,S202
Mk571,S220,849498,1,0,593,45,201,S202
Mk574,S220,853234,1,0,718,6,203,S202
Mk577,S220,856738,1,0,662,16,206,S202
Mk580,S220,861802,1,0,668,10,205,S202
Mk583,S220,865410,1,0,610,1,208,S202
Mk586,S220,869202,1,0,818,1,201,S202
Mk589,S220,874219,1,0,559,1,206,S202
Mk592,S220,877659,1,0,480,44,207,S202
Mk595,S220,881099,1,0,578,24,208,S202
Mk598,S220,886363,1,0,713,22,206,S202
Mk601,S221,889939,1,0,575,19,205,S202
Mk604,S220,893699,1,0,858,32,202,S202
Mk607,S220,898931,1,0,867,16,207,S202
Mk610,S220,902811,1,0,824,22,201,S202
Mk613,S220,906627,1,0,909,3,202,S202
Mk616,S220,911851,1,0,645,6,206,S202
Mk619,S220,915444,1,0,641,25,202,S202
Mk622,S221,918979,1,0,530,18,204,S202
Mk625,S220,924411,1,0,855,23,206,S202
Mk628,S220,928188,1,0,725,38,208,S202
Mk631,S220,931876,1,0,792,5,203,S202
Mk634,S220,937028,1,0,753,2,203,S202
Mk637,S220,940724,1,0,840,11,206,S202
Mk640,S220,944356,1,0,632,36,202,S202
Mk643,S220,949564,1,0,637,37,207,S202
Mk646,S220,953332,1,0,863,18,203,S202
Mk649,S220,957029,1,0,679,9,202,S202
Mk652,S221,962332,1,0,789,31,202,S202
Mk655,S220,966084,1,0,754,18,206,S202
Mk658,S220,969636,1,0,502,45,207,S202
Mk661,S220,974453,1,0,467,50,207,S202
Mk664,S220,977996,1,0,646,42,208,S202
Mk667,S220,981629,1,0,763,12,205,S202
Mk670,S220,986597,1,0,479,29,207,S202
Mk673,S220,990141,1,0,588,4,205,S202
Mk676,S221,994037,1,0,845,16,208,S202
Mk679,S221,1011922,1,0,1222,15,208,S202
Mk682,S221,1015397,1,0,466,22,204,S202
Mk685,S220,1019125,1,0,752,10,206,S202
Mk688,S220,1024190,1,0,603,32,201,S202
Mk691,S220,1027773,1,0,570,19,207,S202
Mk694,S220,1031750,1,0,914,27,208,S202
Mk697,S220,1036750,1,0,515,43,207,S202
Mk700,S220,1040230,1,0,579,39,201,S202
Mk703,S220,1043686,1,0,450,4,207,S202
Mk706,S220,1048702,1,0,569,39,207,S202
Mk709,S220,1052430,1,0,730,19,208,S202
Mk712,S220,1055702,1,0,432,46,207,S202
Mk715,S220,1060742,1,0,682,49,208,S202
Mk718,S220,1064206,1,0,613,5,202,S202
Mk721,S220,1067951,1,0,752,31,208,S202
Mk724,S220,1073134,1,0,665,48,208,S202
Mk727,S220,1076910,1,0,816,20,205,S202
Mk730,S220,1080520,1,0,667,6,202,S202
Mk733,S220,1085759,1,0,788,3,208,S202
Mk736,S220,1089247,1,0,496,36,207,S202
Mk739,S220,1092847,1,0,660,14,204,S202
Mk742,S220,1097983,1,0,584,9,204,S202
Mk745,S220,1101535,1,0,579,48,201,S202
Mk748,S220,1105175,1,0,626,20,204,S202
Mk751,S220,1110288,1,0,650,20,208,S202
Mk754,S220,1113999,1,0,737,12,203,S202
Mk757,S220,1117431,1,0,564,28,201,S202
Mk760,S220,1122511,1,0,620,6,204,S202
Mk763,S220,1126207,1,0,856,41,202,S202
Mk766,S220,1129728,1,0,574,46,202,S202
Mk769,S220,1134752,1,0,681,7,208,S202
Mk772,S220,1138368,1,0,574,2,208,S202
Mk775,S220,1142152,1,0,736,14,208,S202
Mk778,S220,1147152,1,0,493,47,202,S202
Mk781,S220,1150857,1,0,745,7,201,S202
Mk784,S220,1154688,1,0,752,22,205,S202
Mk787,S220,1160040,1,0,1000,2,206,S202
Mk790,S220,1163776,1,0,691,21,208,S202
Mk793,S220,1167425,1,0,598,34,208,S202
Mk796,S220,1172368,1,0,540,26,201,S202
Mk799,S220,1175880,1,0,611,10,204,S202
Mk802,S221,1179576,1,0,648,22,207,S202
Mk805,S220,1184769,1,0,786,23,202,S202
Mk808,S220,1188505,1,0,736,21,205,S202
Mk811,S220,1192441,1,0,987,18,205,S202
Mk814,S220,1197737,1,0,739,36,208,S202
Mk817,S220,1201337,1,0,682,12,208,S202
Mk820,S220,1204881,1,0,578,44,208,S202
Mk823,S220,1209857,1,0,621,44,202,S202
Mk826,S220,1213497,1,0,594,30,201,S202
Mk829,S220,1217065,1,0,505,33,201,S202
Mk832,S221,1222201,1,0,599,23,207,S202
Mk835,S220,1225977,1,0,723,14,205,S202
Mk838,S220,1229690,1,0,754,25,201,S202
Mk841,S220,1234642,1,0,567,8,208,S202
Mk844,S220,1238082,1,0,592,24,207,S202
Mk847,S220,1241762,1,0,776,16,204,S202
Mk850,S220,1246658,1,0,538,17,205,S202
Mk853,S220,1250122,1,0,498,27,202,S202
Mk856,S220,1253642,1,0,618,3,204,S202
Mk859,S220,1258787,1,0,552,28,207,S202
Mk862,S220,1262242,1,0,542,33,202,S202
Mk865,S220,1265810,1,0,490,34,207,S202
Mk868,S220,1270834,1,0,621,45,208,S202
Mk871,S220,1274682,1,0,792,47,208,S202
Mk874,S220,1278179,1,0,535,4,202,S202
Mk877,S220,1283603,1,0,975,46,201,S202
Mk880,S220,1287523,1,0,882,40,207,S202
Mk883,S220,1291027,1,0,610,6,201,S202
Mk886,S220,1296339,1,0,767,33,208,S202
Mk889,S220,1299787,1,0,460,35,207,S202
Mk892,S220,1303187,1,0,553,8,207,S202
Mk895,S220,1308187,1,0,490,25,207,S202
Mk898,S221,1312347,1,0,1114,2,204,S202
Mk901,S220,1315843,1,0,605,23,203,S202
Mk4,S221,148233,1,0,1221,47,201,S203
Mk7,S220,151915,1,0,718,9,207,S203
Mk10,S220,156003,1,0,1048,24,205,S203
Mk13,S220,161667,1,0,1170,4,206,S203
Mk16,S220,165499,1,0,878,16,201,S203
Mk19,S220,169171,1,0,762,36,201,S203
Mk22,S220,174355,1,0,771,42,202,S203
Mk25,S220,178155,1,0,744,46,207,S203
Mk28,S220,181779,1,0,772,8,204,S203
Mk31,S220,187268,1,0,981,39,208,S203
Mk34,S220,191036,1,0,898,39,202,S203
Mk37,S220,194740,1,0,806,16,204,S203
Mk40,S220,199996,1,0,894,7,208,S203
Mk43,S220,203996,1,0,933,17,201,S203
Mk46,S220,207684,1,0,692,43,207,S203
Mk49,S220,212692,1,0,613,23,202,S203
Mk52,S220,216580,1,0,894,6,208,S203
Mk55,S220,220460,1,0,997,41,208,S203
Mk58,S220,225756,1,0,837,24,201,S203
Mk61,S220,229356,1,0,755,5,206,S203
Mk64,S220,233084,1,0,718,8,208,S203
Mk67,S220,238124,1,0,683,11,208,S203
Mk70,S221,242194,1,0,1221,20,203,S203
Mk73,S221,246425,1,0,1220,16,205,S203
Mk76,S220,251597,1,0,650,5,208,S203
Mk79,S220,255357,1,0,721,40,201,S203
Mk82,S220,258789,1,0,591,46,202,S203
Mk85,S220,263885,1,0,692,3,207,S203
Mk88,S220,267485,1,0,646,22,203,S203
Mk91,S220,271293,1,0,807,1,208,S203
Mk94,S220,276621,1,0,865,2,202,S203
Mk97,S220,280397,1,0,781,43,208,S203
Mk100,S220,284166,1,0,718,8,201,S203
Mk103,S220,289438,1,0,773,26,207,S203
Mk106,S220,292965,1,0,582,21,208,S203
Mk109,S220,296629,1,0,613,33,201,S203
Mk112,S220,301830,1,0,697,32,208,S203
Mk115,S220,305574,1,0,797,10,205,S203
Mk118,S220,309190,1,0,606,49,207,S203
Mk121,S220,314294,1,0,690,24,207,S203
Mk124,S220,317894,1,0,695,6,201,S203
Mk127,S220,321702,1,0,762,50,208,S203
Mk130,S221,326814,1,0,563,24,204,S203
Mk133,S220,330998,1,0,1192,11,207,S203
Mk136,S220,334806,1,0,757,40,202,S203
Mk139,S220,340166,1,0,812,3,201,S203
Mk142,S220,343839,1,0,766,24,206,S203
Mk145,S220,347654,1,0,751,47,207,S203
Mk148,S220,352599,1,0,592,41,207,S203
Mk151,S220,356159,1,0,673,9,203,S203
Mk154,S220,360111,1,0,899,10,204,S203
Mk157,S220,365295,1,0,623,20,207,S203
Mk160,S220,369007,1,0,640,38,201,S203
Mk163,S220,372503,1,0,620,46,201,S203
Mk166,S220,377775,1,0,758,4,204,S203
Mk169,S220,381367,1,0,546,48,201,S203
Mk172,S220,385207,1,0,824,18,201,S203
Mk175,S220,390583,1,0,1002,32,201,S203
Mk178,S220,394151,1,0,568,48,207,S203
Mk181,S220,397791,1,0,723,14,208,S203
Mk184,S220,402848,1,0,546,33,207,S203
Mk187,S220,406528,1,0,704,13,208,S203
Mk190,S220,410432,1,0,898,11,203,S203
Mk193,S220,415528,1,0,619,17,207,S203
Mk196,S220,419336,1,0,801,25,207,S203
Mk199,S220,423112,1,0,707,20,206,S203
Mk202,S220,428440,1,0,971,3,202,S203
Mk205,S220,432264,1,0,754,20,204,S203
Mk208,S220,435792,1,0,583,37,208,S203
Mk211,S220,440856,1,0,671,2,206,S203
Mk214,S220,444641,1,0,732,27,201,S203
Mk217,S220,448400,1,0,859,29,201,S203
Mk220,S220,453432,1,0,595,23,201,S203
Mk223,S220,457113,1,0,681,36,207,S203
Mk226,S220,460801,1,0,719,15,207,S203
Mk229,S220,471265,1,0,987,26,202,S203
Mk232,S220,475001,1,0,710,14,206,S203
Mk235,S220,478593,1,0,586,47,208,S203
Mk238,S220,483681,1,0,634,23,205,S203
Mk241,S220,487225,1,0,682,25,202,S203
Mk244,S220,490985,1,0,755,34,207,S203
Mk247,S220,496105,1,0,714,28,201,S203
Mk250,S220,499553,1,0,545,10,207,S203
Mk253,S220,502881,1,0,452,39,207,S203
Mk256,S220,507858,1,0,476,13,207,S203
Mk259,S220,511514,1,0,766,17,208,S203
Mk262,S220,515442,1,0,857,1,205,S203
Mk265,S220,520794,1,0,852,9,201,S203
Mk268,S220,524426,1,0,657,44,207,S203
Mk271,S220,528018,1,0,744,26,208,S203
Mk274,S220,533234,1,0,688,31,208,S203
Mk277,S220,537474,1,0,1219,15,208,S203
Mk280,S220,541426,1,0,951,5,203,S203
Mk283,S220,546394,1,0,542,49,202,S203
Mk286,S220,550034,1,0,731,34,201,S203
Mk289,S221,554179,1,0,1126,15,204,S203
Mk292,S220,559426,1,0,819,8,205,S203
Mk295,S220,563219,1,0,933,17,204,S203
Mk298,S220,566875,1,0,688,41,201,S203
Mk301,S220,571899,1,0,669,13,205,S203
Mk304,S220,575587,1,0,736,16,208,S203
Mk307,S220,579219,1,0,716,10,203,S203
Mk310,S220,584163,1,0,586,20,202,S203
Mk313,S220,587867,1,0,655,7,205,S203
Mk316,S220,591515,1,0,760,8,203,S203
Mk319,S220,596523,1,0,637,9,202,S203
Mk322,S220,600187,1,0,667,9,206,S203
Mk325,S221,604212,1,0,1032,42,201,S203
Mk328,S220,609252,1,0,618,16,202,S203
Mk331,S220,612948,1,0,724,19,205,S203
Mk334,S220,616804,1,0,935,31,207,S203
Mk337,S220,622028,1,0,689,4,201,S203
Mk340,S220,626148,1,0,1125,37,202,S203
Mk343,S220,630044,1,0,835,21,205,S203
Mk346,S220,635172,1,0,658,44,208,S203
Mk349,S220,638868,1,0,854,19,202,S203
Mk352,S221,642677,1,0,960,28,202,S203
Mk355,S220,647805,1,0,650,17,206,S203
Mk358,S220,651492,1,0,721,5,204,S203
Mk361,S220,655332,1,0,882,45,202,S203
Mk364,S220,660581,1,0,716,33,208,S203
Mk367,S220,664701,1,0,1117,1,204,S203
Mk370,S220,668413,1,0,804,8,207,S203
Mk373,S220,673605,1,0,671,20,201,S203
Mk376,S220,677365,1,0,808,3,203,S203
Mk379,S220,680981,1,0,700,18,202,S203
Mk382,S220,686413,1,0,933,22,202,S203
Mk385,S221,690544,1,0,1222,7,204,S203
Mk388,S220,694565,1,0,979,6,207,S203
Mk391,S220,699765,1,0,774,24,203,S203
Mk394,S220,703517,1,0,744,36,202,S203
Mk397,S220,707333,1,0,753,9,204,S203
Mk400,S221,713031,1,0,1221,4,203,S203
Mk403,S220,716830,1,0,848,3,204,S203
Mk406,S220,720630,1,0,742,47,202,S203
Mk409,S220,725846,1,0,766,9,205,S203
Mk412,S221,729702,1,0,918,15,203,S203
Mk415,S220,733526,1,0,782,5,201,S203
Mk418,S220,738911,1,0,820,43,201,S203
Mk421,S221,743118,1,0,1220,17,202,S203
Mk424,S220,746718,1,0,697,28,208,S203
Mk427,S220,751926,1,0,640,2,207,S203
Mk430,S220,755679,1,0,753,6,205,S203
Mk433,S220,759583,1,0,855,18,207,S203
Mk436,S221,765376,1,0,1221,31,202,S203
Mk439,S220,769023,1,0,649,30,208,S203
Mk442,S220,772847,1,0,971,26,201,S203
Mk445,S220,778279,1,0,1021,13,204,S203
Mk448,S220,782303,1,0,1077,6,202,S203
Mk451,S220,786471,1,0,1213,50,201,S203
Mk454,S220,800735,1,0,946,7,201,S203
Mk457,S220,804359,1,0,568,1,201,S203
Mk460,S220,808240,1,0,919,18,203,S203
Mk463,S220,813271,1,0,507,29,202,S203
Mk466,S220,817184,1,0,866,18,206,S203
Mk469,S220,820984,1,0,758,17,205,S203
Mk472,S220,826216,1,0,773,20,208,S203
Mk475,S220,829864,1,0,665,8,206,S203
Mk478,S220,833928,1,0,1090,14,204,S203
Mk481,S220,839624,1,0,1114,4,205,S203
Mk484,S220,843624,1,0,941,30,201,S203
Mk487,S220,847552,1,0,854,10,201,S203
Mk490,S220,852976,1,0,905,5,202,S203
Mk493,S220,856969,1,0,955,27,202,S203
Mk496,S220,860616,1,0,739,12,202,S203
Mk499,S220,866233,1,0,1165,14,203,S203
Mk502,S220,870145,1,0,1027,11,204,S203
Mk505,S221,874368,1,0,1221,33,202,S203
Mk508,S220,879977,1,0,1018,12,208,S203
Mk511,S220,883801,1,0,874,15,201,S203
Mk514,S221,887870,1,0,1221,16,203,S203
Mk517,S220,892961,1,0,667,23,203,S203
Mk520,S221,897044,1,0,1221,6,203,S203
Mk523,S220,900505,1,0,607,1,207,S203
Mk526,S220,905937,1,0,879,18,208,S203
Mk529,S221,910115,1,0,1220,15,202,S203
Mk532,S220,913746,1,0,584,49,208,S203
Mk535,S220,918690,1,0,592,30,207,S203
Mk538,S220,922282,1,0,746,29,207,S203
Mk541,S220,926058,1,0,821,35,208,S203
Mk544,S220,931026,1,0,488,8,202,S203
Mk547,S220,934642,1,0,573,14,202,S203
Mk550,S220,938219,1,0,587,16,206,S203
Mk553,S220,943347,1,0,721,34,202,S203
Mk556,S220,946858,1,0,660,25,204,S203
Mk559,S220,950387,1,0,674,1,206,S203
Mk562,S220,955506,1,0,658,12,204,S203
Mk565,S221,959515,1,0,1112,16,207,S203
Mk568,S220,963490,1,0,926,34,208,S203
Mk571,S220,968475,1,0,579,12,201,S203
Mk574,S220,972363,1,0,819,5,205,S203
Mk577,S220,976139,1,0,693,14,205,S203
Mk580,S220,981187,1,0,599,42,208,S203
Mk583,S220,984995,1,0,906,6,204,S203
Mk586,S220,988411,1,0,554,29,208,S203
Mk589,S220,993819,1,0,1046,40,207,S203
Mk592,S220,997427,1,0,711,19,206,S203
Mk595,S220,1000891,1,0,569,11,205,S203
Mk598,S220,1005940,1,0,656,49,201,S203
Mk601,S220,1009931,1,0,959,18,204,S203
Mk604,S220,1013580,1,0,601,37,201,S203
Mk607,S220,1018540,1,0,594,3,206,S203
Mk610,S220,1022188,1,0,704,45,207,S203
Mk613,S220,1025940,1,0,905,17,203,S203
Mk616,S220,1031076,1,0,614,22,205,S203
Mk619,S221,1034740,1,0,817,21,202,S203
Mk622,S220,1038700,1,0,988,11,202,S203
Mk625,S220,1043876,1,0,753,19,204,S203
Mk628,S220,1047740,1,0,922,20,205,S203
Mk631,S220,1051396,1,0,675,38,207,S203
Mk634,S220,1056436,1,0,636,22,208,S203
Mk637,S220,1059908,1,0,615,7,206,S203
Mk640,S220,1063781,1,0,873,19,201,S203
Mk643,S220,1069117,1,0,770,22,206,S203
Mk646,S220,1072757,1,0,637,9,208,S203
Mk649,S220,1076373,1,0,706,10,208,S203
Mk652,S221,1082125,1,0,1220,1,202,S203
Mk655,S220,1086109,1,0,992,14,207,S203
Mk658,S220,1089989,1,0,854,7,202,S203
Mk661,S220,1095381,1,0,857,2,204,S203
Mk664,S220,1099077,1,0,801,4,207,S203
Mk667,S220,1102886,1,0,855,30,202,S203
Mk670,S220,1108093,1,0,654,4,208,S203
Mk673,S220,1111774,1,0,795,22,201,S203
Mk676,S221,1115518,1,0,813,27,208,S203
Mk679,S220,1122886,1,0,897,15,206,S203
Mk682,S220,1126886,1,0,1149,25,206,S203
Mk685,S220,1130462,1,0,662,21,201,S203
Mk688,S220,1135902,1,0,977,25,203,S203
Mk691,S220,1139542,1,0,641,39,201,S203
Mk694,S220,1143430,1,0,894,22,207,S203
Mk697,S220,1148606,1,0,721,10,206,S203
Mk700,S220,1152302,1,0,753,15,205,S203
Mk703,S220,1156062,1,0,703,19,207,S203
Mk706,S220,1161502,1,0,881,2,201,S203
Mk709,S220,1165359,1,0,805,23,206,S203
Mk712,S220,1169199,1,0,769,25,208,S203
Mk715,S220,1174303,1,0,755,23,204,S203
Mk718,S220,1177975,1,0,771,21,204,S203
Mk721,S220,1181511,1,0,588,3,205,S203
Mk724,S220,1186879,1,0,922,12,203,S203
Mk727,S221,1190952,1,0,1221,5,207,S203
Mk730,S220,1194447,1,0,646,44,202,S203
Mk733,S220,1199543,1,0,552,27,207,S203
Mk736,S220,1203088,1,0,702,13,206,S203
Mk739,S220,1206920,1,0,794,36,208,S203
Mk742,S220,1212039,1,0,698,12,206,S203
Mk745,S220,1215879,1,0,889,37,207,S203
Mk748,S220,1219400,1,0,627,28,207,S203
Mk751,S220,1224392,1,0,641,45,208,S203
Mk754,S220,1228488,1,0,1014,41,202,S203
Mk757,S220,1232312,1,0,863,23,208,S203
Mk760,S220,1237689,1,0,998,35,202,S203
Mk763,S220,1241544,1,0,803,35,207,S203
Mk766,S220,1245232,1,0,843,45,201,S203
Mk769,S221,1250977,1,0,1221,46,208,S203
Mk772,S220,1254953,1,0,931,43,202,S203
Mk775,S220,1258544,1,0,723,2,205,S203
Mk778,S220,1263648,1,0,758,1,203,S203
Mk781,S220,1267225,1,0,719,2,208,S203
Mk784,S220,1271313,1,0,992,32,207,S203
Mk787,S220,1276305,1,0,613,7,207,S203
Mk790,S220,1280377,1,0,1177,32,202,S203
Mk793,S220,1284233,1,0,1000,48,208,S203
Mk796,S220,1289273,1,0,566,19,203,S203
Mk799,S220,1292633,1,0,499,22,204,S203
Mk802,S220,1296441,1,0,832,21,203,S203
Mk805,S220,1301522,1,0,567,38,208,S203
Mk808,S220,1305281,1,0,855,21,207,S203
Mk811,S220,1309065,1,0,731,12,205,S203
Mk814,S220,1314370,1,0,828,13,203,S203
Mk817,S220,1318466,1,0,1216,31,201,S203
Mk820,S220,1322202,1,0,840,10,202,S203
Mk823,S220,1327434,1,0,699,48,202,S203
Mk826,S220,1331314,1,0,902,40,208,S203
Mk829,S220,1335106,1,0,934,18,205,S203
Mk832,S220,1340426,1,0,741,12,207,S203
Mk835,S220,1344259,1,0,921,38,202,S203
Mk838,S220,1347770,1,0,594,7,203,S203
Mk841,S220,1352938,1,0,618,42,207,S203
Mk844,S220,1356666,1,0,773,11,206,S203
Mk847,S221,1360410,1,0,747,19,208,S203
Mk850,S220,1365555,1,0,791,44,201,S203
Mk853,S220,1369131,1,0,675,3,208,S203
Mk856,S220,1372907,1,0,750,14,201,S203
Mk859,S220,1378483,1,0,1118,24,208,S203
Mk862,S220,1382411,1,0,887,35,201,S203
Mk865,S221,1386227,1,0,911,23,207,S203
Mk868,S220,1391595,1,0,795,4,202,S203
Mk871,S221,1395770,1,0,1222,11,201,S203
Mk874,S220,1399499,1,0,715,50,207,S203
Mk877,S220,1404603,1,0,701,13,202,S203
Mk880,S220,1408003,1,0,501,50,202,S203
Mk883,S220,1411860,1,0,989,13,201,S203
Mk886,S220,1417268,1,0,971,6,206,S203
Mk889,S220,1420948,1,0,718,25,205,S203
Mk892,S220,1424716,1,0,716,24,202,S203
Mk895,S220,1429916,1,0,623,21,206,S203
Mk898,S220,1433636,1,0,824,2,203,S203
Mk901,S220,1437196,1,0,683,25,201,S203
Mk4,S221,135409,1,0,1220,24,204,S204
Mk7,S220,139506,1,0,1076,17,208,S204
Mk10,S221,143953,1,0,1220,19,208,S204
Mk13,S220,149202,1,0,864,9,208,S204
Mk16,S220,153018,1,0,906,32,202,S204
Mk19,S220,156578,1,0,704,6,207,S204
Mk22,S220,162218,1,0,1220,14,206,S204
Mk25,S221,166440,1,0,1221,39,201,S204
Mk28,S220,170435,1,0,1004,44,208,S204
Mk31,S220,175643,1,0,833,33,207,S204
Mk34,S221,179812,1,0,1220,33,202,S204
Mk37,S221,184085,1,0,1220,1,204,S204
Mk40,S220,189347,1,0,837,21,202,S204
Mk43,S221,193517,1,0,1220,22,207,S204
Mk46,S220,197163,1,0,739,29,202,S204
Mk49,S221,202956,1,0,1220,32,207,S204
Mk52,S220,206692,1,0,881,21,201,S204
Mk55,S220,210787,1,0,1143,40,202,S204
Mk58,S220,216132,1,0,772,14,201,S204
Mk61,S220,219636,1,0,563,17,207,S204
Mk64,S220,223828,1,0,1164,4,202,S204
Mk67,S220,229364,1,0,1060,5,201,S204
Mk70,S220,233148,1,0,741,4,201,S204
Mk73,S220,236796,1,0,659,3,202,S204
Mk76,S220,242068,1,0,711,8,202,S204
Mk79,S221,246355,1,0,1221,20,207,S204
Mk82,S220,250604,1,0,1199,46,201,S204
Mk85,S221,256354,1,0,1221,17,206,S204
Mk88,S221,260529,1,0,1220,23,205,S204
Mk91,S220,264588,1,0,1204,22,202,S204
Mk94,S220,269757,1,0,737,24,208,S204
Mk97,S220,273733,1,0,900,15,204,S204
Mk100,S220,277253,1,0,617,39,207,S204
Mk103,S220,282925,1,0,1148,18,206,S204
Mk106,S220,287037,1,0,1065,5,205,S204
Mk109,S220,290877,1,0,790,5,203,S204
Mk112,S221,296507,1,0,1221,5,202,S204
Mk115,S221,300726,1,0,1221,9,201,S204
Mk118,S220,304493,1,0,815,10,203,S204
Mk121,S220,309630,1,0,789,32,201,S204
Mk124,S220,313630,1,0,998,17,203,S204
Mk127,S221,317848,1,0,1220,16,207,S204
Mk130,S220,323485,1,0,1069,1,205,S204
Mk133,S221,327661,1,0,1220,45,201,S204
Mk136,S221,331884,1,0,1220,42,208,S204
Mk139,S220,337254,1,0,1012,13,204,S204
Mk142,S220,341030,1,0,812,7,202,S204
Mk145,S220,344822,1,0,784,1,202,S204
Mk148,S221,350553,1,0,1221,2,205,S204
Mk151,S221,354623,1,0,1221,11,206,S204
Mk154,S220,358750,1,0,1117,18,205,S204
Mk157,S220,364463,1,0,1138,21,208,S204
Mk160,S220,368271,1,0,757,7,208,S204
Mk163,S220,372495,1,0,1143,17,202,S204
Mk166,S220,377751,1,0,836,2,201,S204
Mk169,S221,382021,1,0,1220,5,208,S204
Mk172,S220,386263,1,0,1195,39,208,S204
Mk175,S220,391807,1,0,1163,19,203,S204
Mk178,S220,395351,1,0,681,1,207,S204
Mk181,S220,399232,1,0,829,13,206,S204
Mk184,S220,404600,1,0,797,25,204,S204
Mk187,S221,408699,1,0,1221,32,208,S204
Mk190,S221,412872,1,0,1221,31,202,S204
Mk193,S220,418127,1,0,733,2,202,S204
Mk196,S220,421728,1,0,581,41,201,S204
Mk199,S220,425536,1,0,937,22,206,S204
Mk202,S220,430816,1,0,748,15,205,S204
Mk205,S220,434984,1,0,1119,8,207,S204
Mk208,S220,439016,1,0,1036,12,203,S204
Mk211,S221,444464,1,0,1069,28,202,S204
Mk214,S221,448657,1,0,1220,7,207,S204
Mk217,S220,452480,1,0,932,9,204,S204
Mk220,S220,458160,1,0,1212,46,202,S204
Mk223,S220,461624,1,0,622,13,207,S204
Mk226,S220,465201,1,0,731,6,205,S204
Mk229,S221,486648,1,0,1220,13,203,S204
Mk232,S220,490145,1,0,614,34,207,S204
Mk235,S220,493809,1,0,762,3,201,S204
Mk238,S220,498993,1,0,785,17,205,S204
Mk241,S220,502737,1,0,794,20,206,S204
Mk244,S220,506425,1,0,822,13,205,S204
Mk247,S221,511721,1,0,832,48,208,S204
Mk250,S220,515537,1,0,850,39,202,S204
Mk253,S221,519667,1,0,1220,9,206,S204
Mk256,S220,525345,1,0,1135,20,202,S204
Mk259,S220,529338,1,0,927,20,204,S204
Mk262,S221,533518,1,0,1221,5,207,S204
Mk265,S221,539100,1,0,1221,14,202,S204
Mk268,S220,542722,1,0,618,7,205,S204
Mk271,S220,546378,1,0,801,23,208,S204
Mk274,S220,551578,1,0,841,8,201,S204
Mk277,S220,555538,1,0,962,40,201,S204
Mk280,S220,559035,1,0,626,47,201,S204
Mk283,S220,564298,1,0,865,21,205,S204
Mk286,S221,568299,1,0,1030,8,205,S204
Mk289,S221,572371,1,0,1221,5,206,S204
Mk292,S220,577579,1,0,689,49,207,S204
Mk295,S220,581242,1,0,761,10,204,S204
Mk298,S220,585515,1,0,1210,37,208,S204
Mk301,S220,590915,1,0,977,38,208,S204
Mk304,S220,594795,1,0,961,3,208,S204
Mk307,S220,598891,1,0,1077,18,203,S204
Mk310,S220,604619,1,0,1176,16,203,S204
Mk313,S220,608187,1,0,643,49,201,S204
Mk316,S220,611851,1,0,612,6,202,S204
Mk319,S220,617227,1,0,919,4,207,S204
Mk322,S220,620972,1,0,764,3,204,S204
Mk325,S220,625196,1,0,1160,30,207,S204
Mk328,S220,630180,1,0,617,22,201,S204
Mk331,S220,633644,1,0,557,37,207,S204
Mk334,S220,637092,1,0,539,43,201,S204
Mk337,S220,642252,1,0,649,16,202,S204
Mk340,S220,645900,1,0,680,50,208,S204
Mk343,S220,649900,1,0,921,17,204,S204
Mk346,S220,655132,1,0,766,30,208,S204
Mk349,S220,658652,1,0,664,38,202,S204
Mk352,S221,662148,1,0,587,18,204,S204
Mk355,S220,667620,1,0,915,1,201,S204
Mk358,S220,671284,1,0,700,13,208,S204
Mk361,S220,675484,1,0,1199,8,208,S204
Mk364,S220,681061,1,0,1208,24,205,S204
Mk367,S220,684749,1,0,734,19,202,S204
Mk370,S220,688309,1,0,689,10,207,S204
Mk373,S220,693333,1,0,675,45,202,S204
Mk376,S220,697133,1,0,781,22,203,S204
Mk379,S220,700629,1,0,484,14,207,S204
Mk382,S220,705797,1,0,660,11,207,S204
Mk385,S220,709581,1,0,731,30,201,S204
Mk388,S220,713453,1,0,794,45,208,S204
Mk391,S220,718878,1,0,861,9,203,S204
Mk394,S220,723093,1,0,1171,11,204,S204
Mk397,S220,726861,1,0,740,20,208,S204
Mk400,S220,731918,1,0,578,30,202,S204
Mk403,S220,735686,1,0,733,4,204,S204
Mk406,S220,739454,1,0,713,1,203,S204
Mk409,S220,744422,1,0,616,49,208,S204
Mk412,S220,747974,1,0,688,13,202,S204
Mk415,S220,751982,1,0,1108,11,203,S204
Mk418,S221,757690,1,0,1220,36,208,S204
Mk421,S220,761639,1,0,1050,5,204,S204
Mk424,S220,765414,1,0,812,11,205,S204
Mk427,S220,770654,1,0,834,2,207,S204
Mk430,S220,774390,1,0,738,21,204,S204
Mk433,S220,778479,1,0,1115,20,203,S204
Mk436,S220,783887,1,0,900,7,203,S204
Mk439,S220,787655,1,0,703,23,203,S204
Mk442,S220,791247,1,0,727,44,207,S204
Mk445,S220,796215,1,0,612,12,207,S204
Mk448,S220,799647,1,0,540,26,201,S204
Mk451,S220,803207,1,0,656,16,204,S204
Mk454,S220,817543,1,0,1048,29,201,S204
Mk457,S220,821536,1,0,1093,9,205,S204
Mk460,S221,825698,1,0,1221,25,206,S204
Mk463,S220,831296,1,0,1177,41,208,S204
Mk466,S220,835384,1,0,1131,50,207,S204
Mk469,S220,839304,1,0,847,21,203,S204
Mk472,S220,844608,1,0,757,44,201,S204
Mk475,S220,848120,1,0,601,36,202,S204
Mk478,S220,851768,1,0,586,34,202,S204
Mk481,S220,856896,1,0,752,10,206,S204
Mk484,S220,860520,1,0,667,48,207,S204
Mk487,S220,864312,1,0,892,16,208,S204
Mk490,S220,869441,1,0,716,43,208,S204
Mk493,S220,873216,1,0,711,38,201,S204
Mk496,S220,876849,1,0,760,6,206,S204
Mk499,S220,882000,1,0,680,35,202,S204
Mk502,S220,885905,1,0,857,29,207,S204
Mk505,S220,889617,1,0,762,1,206,S204
Mk508,S220,894833,1,0,760,10,205,S204
Mk511,S220,898401,1,0,563,27,202,S204
Mk514,S220,902105,1,0,814,22,205,S204
Mk517,S220,907265,1,0,810,50,201,S204
Mk520,S220,910793,1,0,571,15,207,S204
Mk523,S220,914569,1,0,856,35,208,S204
Mk526,S220,919569,1,0,578,47,207,S204
Mk529,S220,923081,1,0,653,45,207,S204
Mk532,S220,926513,1,0,581,6,208,S204
Mk535,S220,931425,1,0,561,37,202,S204
Mk538,S220,935178,1,0,685,6,201,S204
Mk541,S220,938890,1,0,666,2,208,S204
Mk544,S221,944685,1,0,1221,2,204,S204
Mk547,S220,948394,1,0,806,27,201,S204
Mk550,S220,952106,1,0,808,28,201,S204
Mk553,S220,957410,1,0,896,48,202,S204
Mk556,S220,961026,1,0,673,29,208,S204
Mk559,S220,965026,1,0,1151,4,203,S204
Mk562,S220,970379,1,0,887,34,208,S204
Mk565,S220,973898,1,0,616,25,202,S204
Mk568,S220,977675,1,0,767,6,204,S204
Mk571,S220,983219,1,0,1157,19,201,S204
Mk574,S220,986979,1,0,720,16,206,S204
Mk577,S220,990595,1,0,716,17,201,S204
Mk580,S220,995779,1,0,689,15,208,S204
Mk583,S220,999531,1,0,741,14,204,S204
Mk586,S220,1003339,1,0,747,19,204,S204
Mk589,S220,1008379,1,0,566,35,207,S204
Mk592,S220,1011851,1,0,617,38,207,S204
Mk595,S220,1015587,1,0,836,25,207,S204
Mk598,S220,1020691,1,0,529,23,201,S204
Mk601,S220,1024523,1,0,823,3,205,S204
Mk604,S220,1028260,1,0,750,12,205,S204
Mk607,S220,1033572,1,0,829,42,207,S204
Mk610,S220,1037420,1,0,900,3,206,S204
Mk613,S220,1040972,1,0,593,27,208,S204
Mk616,S220,1046516,1,0,1092,4,205,S204
Mk619,S220,1050380,1,0,777,44,202,S204
Mk622,S220,1054260,1,0,838,15,203,S204
Mk625,S220,1059436,1,0,613,19,207,S204
Mk628,S220,1063133,1,0,652,7,204,S204
Mk631,S220,1067132,1,0,941,33,201,S204
Mk634,S220,1072508,1,0,855,12,204,S204
Mk637,S220,1076413,1,0,994,42,201,S204
Mk640,S220,1080181,1,0,867,28,207,S204
Mk643,S220,1085428,1,0,861,13,201,S204
Mk646,S221,1089093,1,0,741,20,205,S204
Mk649,S220,1093197,1,0,1136,19,206,S204
Mk652,S220,1098253,1,0,637,36,201,S204
Mk655,S221,1102141,1,0,964,24,202,S204
Mk658,S220,1106109,1,0,917,26,207,S204
Mk661,S221,1111806,1,0,1221,14,205,S204
Mk664,S220,1115661,1,0,874,12,201,S204
Mk667,S220,1119437,1,0,725,14,208,S204
Mk670,S221,1125163,1,0,1221,35,201,S204
Mk673,S220,1128750,1,0,682,26,202,S204
Mk676,S220,1132814,1,0,1062,18,202,S204
Mk679,S220,1147374,1,0,921,40,207,S204
Mk682,S220,1151478,1,0,1217,24,203,S204
Mk685,S221,1155705,1,0,1221,2,206,S204
Mk688,S220,1160974,1,0,698,18,207,S204
Mk691,S220,1164879,1,0,863,28,208,S204
Mk694,S220,1168734,1,0,760,41,207,S204
Mk697,S220,1173926,1,0,799,47,202,S204
Mk700,S220,1177502,1,0,622,41,202,S204
Mk703,S220,1181374,1,0,915,15,202,S204
Mk706,S220,1186727,1,0,777,34,201,S204
Mk709,S220,1190423,1,0,715,48,201,S204
Mk712,S221,1194407,1,0,957,23,207,S204
Mk715,S221,1200202,1,0,1222,40,208,S204
Mk718,S220,1204215,1,0,1165,22,208,S204
Mk721,S220,1207712,1,0,626,33,208,S204
Mk724,S220,1213151,1,0,929,8,204,S204
Mk727,S220,1217007,1,0,850,46,207,S204
Mk730,S220,1220607,1,0,738,43,202,S204
Mk733,S221,1226173,1,0,1221,23,206,S204
Mk736,S220,1229863,1,0,619,9,207,S204
Mk739,S220,1233671,1,0,796,3,207,S204
Mk742,S220,1239280,1,0,1125,31,208,S204
Mk745,S220,1243448,1,0,1167,14,203,S204
Mk748,S220,1247024,1,0,678,31,201,S204
Mk751,S220,1252048,1,0,619,50,202,S204
Mk754,S220,1255473,1,0,571,18,201,S204
Mk757,S220,1258992,1,0,677,21,207,S204
Mk760,S220,1264408,1,0,852,1,208,S204
Mk763,S220,1268344,1,0,992,4,206,S204
Mk766,S220,1272264,1,0,941,11,201,S204
Mk769,S220,1277792,1,0,1006,3,203,S204
Mk772,S220,1281481,1,0,798,7,201,S204
Mk775,S220,1285377,1,0,851,26,208,S204
Mk778,S220,1290553,1,0,648,42,202,S204
Mk781,S220,1294345,1,0,751,27,207,S204
Mk784,S220,1297857,1,0,660,12,202,S204
Mk787,S221,1303488,1,0,1221,19,205,S204
Mk790,S220,1307305,1,0,884,4,208,S204
Mk793,S220,1310929,1,0,768,18,208,S204
Mk796,S220,1316177,1,0,796,12,208,S204
Mk799,S220,1319913,1,0,784,36,207,S204
Mk802,S220,1323553,1,0,683,37,201,S204
Mk805,S220,1328817,1,0,895,31,207,S204
Mk808,S220,1332458,1,0,612,49,202,S204
Mk811,S220,1336113,1,0,751,24,207,S204
Mk814,S220,1341154,1,0,619,9,202,S204
Mk817,S220,1344842,1,0,679,8,203,S204
Mk820,S220,1348602,1,0,901,2,203,S204
Mk823,S220,1353610,1,0,657,11,202,S204
Mk826,S221,1357298,1,0,794,25,201,S204
Mk829,S220,1360818,1,0,641,43,207,S204
Mk832,S220,1365882,1,0,658,23,202,S204
Mk835,S221,1369538,1,0,658,46,208,S204
Mk838,S221,1373778,1,0,1185,16,205,S204
Mk841,S220,1379226,1,0,906,47,208,S204
Mk844,S221,1383444,1,0,1221,25,205,S204
Mk847,S220,1387443,1,0,946,8,206,S204
Mk850,S220,1392755,1,0,847,24,201,S204
Mk853,S220,1396243,1,0,609,10,202,S204
Mk856,S220,1400275,1,0,1028,12,206,S204
Mk859,S221,1405973,1,0,1221,24,206,S204
Mk862,S220,1409859,1,0,841,23,204,S204
Mk865,S220,1413931,1,0,1156,22,204,S204
Mk868,S220,1419619,1,0,1195,20,201,S204
Mk871,S220,1423363,1,0,771,25,208,S204
Mk874,S220,1427027,1,0,808,10,208,S204
Mk877,S220,1432131,1,0,601,16,201,S204
Mk880,S220,1435588,1,0,568,10,201,S204
Mk883,S220,1439180,1,0,590,11,208,S204
Mk886,S220,1444628,1,0,1073,7,206,S204
Mk889,S220,1448556,1,0,903,25,203,S204
Mk892,S220,1452260,1,0,677,21,206,S204
Mk895,S220,1457716,1,0,1047,15,206,S204
Mk898,S220,1461404,1,0,838,15,201,S204
Mk901,S220,1464996,1,0,717,6,203,S204
Mk4,S221,85893,1,0,1219,15,208,S206
Mk7,S220,89925,1,0,1012,31,208,S206
Mk10,S221,94170,1,0,1220,8,204,S206
Mk13,S221,99902,1,0,1220,21,203,S206
Mk16,S220,103901,1,0,997,26,207,S206
Mk19,S220,107701,1,0,838,10,204,S206
Mk22,S220,113238,1,0,942,15,204,S206
Mk25,S221,117360,1,0,1220,2,205,S206
Mk28,S221,121444,1,0,1221,8,206,S206
Mk31,S220,126534,1,0,597,1,207,S206
Mk34,S220,130366,1,0,779,21,202,S206
Mk37,S220,134102,1,0,779,42,201,S206
Mk40,S220,139110,1,0,604,36,201,S206
Mk43,S221,143245,1,0,1221,19,205,S206
Mk46,S221,147362,1,0,1219,24,201,S206
Mk49,S220,152662,1,0,944,20,205,S206
Mk52,S220,156510,1,0,898,11,202,S206
Mk55,S220,160518,1,0,1091,7,205,S206
Mk58,S220,165814,1,0,927,29,201,S206
Mk61,S220,169462,1,0,724,26,201,S206
Mk64,S220,173054,1,0,656,26,208,S206
Mk67,S220,178311,1,0,746,22,201,S206
Mk70,S220,181879,1,0,654,38,201,S206
Mk73,S220,185319,1,0,599,35,202,S206
Mk76,S220,190623,1,0,723,35,207,S206
Mk79,S220,194175,1,0,672,50,201,S206
Mk82,S220,198063,1,0,840,25,208,S206
Mk85,S220,203095,1,0,650,48,202,S206
Mk88,S220,206903,1,0,865,5,203,S206
Mk91,S220,210815,1,0,1004,5,206,S206
Mk94,S221,216335,1,0,1004,15,203,S206
Mk97,S220,220431,1,0,1034,46,208,S206
Mk100,S220,224279,1,0,736,12,204,S206
Mk103,S220,229376,1,0,686,30,201,S206
Mk106,S220,233176,1,0,720,7,203,S206
Mk109,S220,236960,1,0,744,27,207,S206
Mk112,S220,242048,1,0,720,18,201,S206
Mk115,S220,245672,1,0,767,4,204,S206
Mk118,S220,249432,1,0,713,14,207,S206
Mk121,S220,254576,1,0,591,22,202,S206
Mk124,S220,258088,1,0,612,44,202,S206
Mk127,S220,261912,1,0,775,16,203,S206
Mk130,S220,267177,1,0,853,3,206,S206
Mk133,S220,270800,1,0,676,33,208,S206
Mk136,S220,274441,1,0,616,25,202,S206
Mk139,S220,279929,1,0,984,42,208,S206
Mk142,S220,283497,1,0,718,12,201,S206
Mk145,S220,287185,1,0,637,21,201,S206
Mk148,S220,292489,1,0,846,16,204,S206
Mk151,S221,296574,1,0,1221,15,205,S206
Mk154,S220,300473,1,0,851,18,208,S206
Mk157,S220,305705,1,0,746,41,207,S206
Mk160,S220,309529,1,0,920,24,207,S206
Mk163,S220,313121,1,0,693,40,207,S206
Mk166,S220,318553,1,0,1027,1,205,S206
Mk169,S220,322218,1,0,695,5,204,S206
Mk172,S220,325881,1,0,717,23,207,S206
Mk175,S220,331570,1,0,1125,6,206,S206
Mk178,S220,335186,1,0,662,18,202,S206
Mk181,S221,338898,1,0,696,19,206,S206
Mk184,S220,344010,1,0,709,11,205,S206
Mk187,S220,347642,1,0,734,43,201,S206
Mk190,S220,351322,1,0,668,19,201,S206
Mk193,S220,356610,1,0,731,7,207,S206
Mk196,S220,360218,1,0,702,14,208,S206
Mk199,S220,363907,1,0,684,6,208,S206
Mk202,S220,369018,1,0,763,12,205,S206
Mk205,S220,372754,1,0,773,6,205,S206
Mk208,S220,376427,1,0,599,10,201,S206
Mk211,S220,381699,1,0,685,12,208,S206
Mk214,S220,385411,1,0,758,18,205,S206
Mk217,S220,389659,1,0,1190,34,202,S206
Mk220,S220,394787,1,0,748,5,201,S206
Mk223,S220,398675,1,0,835,26,202,S206
Mk226,S220,402603,1,0,925,6,204,S206
Mk229,S221,413885,1,0,1221,48,201,S206
Mk232,S220,417715,1,0,801,46,201,S206
Mk235,S220,421355,1,0,645,25,201,S206
Mk238,S220,426339,1,0,623,31,201,S206
Mk241,S220,430212,1,0,964,11,203,S206
Mk244,S220,433835,1,0,658,45,201,S206
Mk247,S220,439132,1,0,784,37,208,S206
Mk250,S221,443252,1,0,1220,13,204,S206
Mk253,S220,447068,1,0,844,2,202,S206
Mk256,S220,452332,1,0,718,32,201,S206
Mk259,S220,456036,1,0,677,8,202,S206
Mk262,S220,460204,1,0,1092,25,206,S206
Mk265,S221,465420,1,0,784,31,202,S206
Mk268,S220,469236,1,0,803,8,203,S206
Mk271,S220,472796,1,0,678,40,208,S206
Mk274,S220,477860,1,0,703,45,207,S206
Mk277,S220,481581,1,0,868,28,208,S206
Mk280,S220,485517,1,0,886,1,204,S206
Mk283,S220,490645,1,0,719,22,208,S206
Mk286,S221,494732,1,0,1221,21,208,S206
Mk289,S220,498845,1,0,1063,41,201,S206
Mk292,S220,503917,1,0,714,36,207,S206
Mk295,S221,508095,1,0,1221,19,208,S206
Mk298,S220,511773,1,0,818,20,204,S206
Mk301,S220,517038,1,0,801,35,201,S206
Mk304,S220,520678,1,0,736,43,208,S206
Mk307,S220,524382,1,0,653,36,208,S206
Mk310,S220,529765,1,0,976,47,207,S206
Mk313,S221,533860,1,0,1221,11,206,S206
Mk316,S220,537718,1,0,859,48,207,S206
Mk319,S220,542750,1,0,614,37,207,S206
Mk322,S220,546342,1,0,692,3,201,S206
Mk325,S220,550038,1,0,777,1,203,S206
Mk328,S220,555118,1,0,725,3,207,S206
Mk331,S220,558814,1,0,733,34,208,S206
Mk334,S220,562702,1,0,985,42,202,S206
Mk337,S220,567974,1,0,690,15,207,S206
Mk340,S220,571662,1,0,793,16,207,S206
Mk343,S220,575470,1,0,729,14,204,S206
Mk346,S221,581086,1,0,1071,25,203,S206
Mk349,S220,584998,1,0,917,45,202,S206
Mk352,S220,588759,1,0,758,3,203,S206
Mk355,S220,593895,1,0,735,2,204,S206
Mk358,S220,597567,1,0,781,17,204,S206
Mk361,S220,601111,1,0,597,38,207,S206
Mk364,S220,606151,1,0,639,39,202,S206
Mk367,S220,609727,1,0,679,10,207,S206
Mk370,S220,613287,1,0,710,6,207,S206
Mk373,S220,618455,1,0,770,7,208,S206
Mk376,S220,622495,1,0,954,18,207,S206
Mk379,S220,626599,1,0,1047,22,204,S206
Mk382,S220,632103,1,0,1040,18,206,S206
Mk385,S220,635831,1,0,679,15,202,S206
Mk388,S220,639592,1,0,712,21,206,S206
Mk391,S220,644832,1,0,842,25,204,S206
Mk394,S220,648808,1,0,1121,28,202,S206
Mk397,S220,652672,1,0,909,4,208,S206
Mk400,S220,657736,1,0,688,21,204,S206
Mk403,S220,661713,1,0,1031,40,201,S206
Mk406,S220,665320,1,0,741,32,202,S206
Mk409,S220,670385,1,0,702,49,202,S206
Mk412,S220,674128,1,0,829,24,204,S206
Mk415,S220,678040,1,0,912,20,207,S206
Mk418,S221,683828,1,0,1222,39,207,S206
Mk421,S220,687921,1,0,1097,17,203,S206
Mk424,S220,691905,1,0,987,33,201,S206
Mk427,S221,697041,1,0,619,22,206,S206
Mk430,S220,700793,1,0,758,13,203,S206
Mk433,S220,704321,1,0,658,32,207,S206
Mk436,S220,709385,1,0,714,33,202,S206
Mk439,S220,713201,1,0,735,10,203,S206
Mk442,S220,716673,1,0,620,39,201,S206
Mk445,S220,721857,1,0,673,41,202,S206
Mk448,S221,726053,1,0,1222,1,202,S206
Mk451,S220,729825,1,0,766,49,201,S206
Mk454,S220,752154,1,0,1089,5,202,S206
Mk457,S220,755938,1,0,770,2,203,S206
Mk460,S221,760005,1,0,1220,24,205,S206
Mk463,S220,765274,1,0,802,2,206,S206
Mk466,S220,768874,1,0,544,43,202,S206
Mk469,S220,772610,1,0,864,3,208,S206
Mk472,S220,777738,1,0,588,14,201,S206
Mk475,S220,781283,1,0,598,13,202,S206
Mk478,S220,784762,1,0,542,30,202,S206
Mk481,S220,789987,1,0,725,9,203,S206
Mk484,S221,794131,1,0,1098,15,206,S206
Mk487,S220,798115,1,0,1120,50,208,S206
Mk490,S220,803523,1,0,784,9,207,S206
Mk493,S221,807203,1,0,668,18,204,S206
Mk496,S220,811435,1,0,1173,4,205,S206
Mk499,S221,817234,1,0,1221,22,205,S206
Mk502,S220,820739,1,0,643,17,201,S206
Mk505,S220,824739,1,0,948,1,206,S206
Mk508,S220,830163,1,0,946,8,208,S206
Mk511,S220,834227,1,0,1171,9,205,S206
Mk514,S220,837916,1,0,734,19,202,S206
Mk517,S220,843004,1,0,729,1,208,S206
Mk520,S220,846724,1,0,761,24,202,S206
Mk523,S220,850476,1,0,710,1,201,S206
Mk526,S220,855884,1,0,917,41,208,S206
Mk529,S220,859740,1,0,904,7,204,S206
Mk532,S220,863628,1,0,824,17,208,S206
Mk535,S220,868812,1,0,626,43,207,S206
Mk538,S220,872564,1,0,851,10,205,S206
Mk541,S220,876525,1,0,923,21,205,S206
Mk544,S220,882100,1,0,1087,9,204,S206
Mk547,S220,885692,1,0,619,5,207,S206
Mk550,S220,889260,1,0,694,27,202,S206
Mk553,S220,894389,1,0,715,7,201,S206
Mk556,S220,898045,1,0,611,22,207,S206
Mk559,S220,901709,1,0,762,4,202,S206
Mk562,S220,907269,1,0,1105,9,202,S206
Mk565,S220,911045,1,0,756,2,207,S206
Mk568,S220,914837,1,0,787,38,202,S206
Mk571,S220,919997,1,0,764,12,207,S206
Mk574,S220,923765,1,0,822,9,201,S206
Mk577,S220,927525,1,0,794,23,208,S206
Mk580,S220,932677,1,0,787,30,208,S206
Mk583,S220,936397,1,0,852,5,208,S206
Mk586,S220,940125,1,0,656,44,207,S206
Mk589,S220,945286,1,0,791,29,207,S206
Mk592,S220,949006,1,0,755,20,203,S206
Mk595,S220,953022,1,0,995,46,207,S206
Mk598,S220,958110,1,0,709,4,206,S206
Mk601,S220,961726,1,0,659,20,202,S206
Mk604,S220,965534,1,0,733,2,208,S206
Mk607,S220,970942,1,0,853,3,202,S206
Mk610,S220,974887,1,0,859,11,204,S206
Mk613,S220,978702,1,0,818,37,201,S206
Mk616,S220,983878,1,0,754,12,203,S206
Mk619,S220,987734,1,0,1014,17,207,S206
Mk622,S220,991599,1,0,869,27,201,S206
Mk625,S220,997223,1,0,1191,7,206,S206
Mk628,S220,1001191,1,0,967,10,208,S206
Mk631,S221,1005023,1,0,809,49,208,S206
Mk634,S220,1010399,1,0,1019,10,206,S206
Mk637,S220,1014063,1,0,708,11,207,S206
Mk640,S220,1017855,1,0,741,16,205,S206
Mk643,S220,1022951,1,0,590,13,201,S206
Mk646,S220,1026424,1,0,568,25,207,S206
Mk649,S221,1030255,1,0,764,25,205,S206
Mk652,S220,1035943,1,0,1142,24,208,S206
Mk655,S220,1039999,1,0,996,9,208,S206
Mk658,S220,1043592,1,0,689,34,207,S206
Mk661,S220,1048800,1,0,802,2,201,S206
Mk664,S220,1052632,1,0,774,33,207,S206
Mk667,S221,1056812,1,0,1221,19,203,S206
Mk670,S220,1061888,1,0,698,23,205,S206
Mk673,S220,1065544,1,0,782,14,206,S206
Mk676,S220,1069648,1,0,1108,17,205,S206
Mk679,S221,1085177,1,0,1221,18,203,S206
Mk682,S220,1089296,1,0,1124,14,205,S206
Mk685,S220,1093393,1,0,1127,32,208,S206
Mk688,S220,1098513,1,0,655,48,208,S206
Mk691,S220,1102241,1,0,754,44,208,S206
Mk694,S220,1105745,1,0,650,20,208,S206
Mk697,S220,1110769,1,0,562,19,207,S206
Mk700,S220,1114457,1,0,636,4,203,S206
Mk703,S220,1118257,1,0,835,22,203,S206
Mk706,S220,1123737,1,0,971,13,206,S206
Mk709,S220,1127537,1,0,747,24,203,S206
Mk712,S221,1131273,1,0,737,24,206,S206
Mk715,S220,1136722,1,0,862,12,206,S206
Mk718,S220,1140394,1,0,709,16,201,S206
Mk721,S220,1144129,1,0,815,19,204,S206
Mk724,S220,1149265,1,0,676,47,202,S206
Mk727,S220,1152978,1,0,722,40,202,S206
Mk730,S220,1156986,1,0,915,14,203,S206
Mk733,S220,1162050,1,0,641,28,207,S206
Mk736,S220,1165730,1,0,835,50,207,S206
Mk739,S220,1169691,1,0,1067,11,208,S206
Mk742,S220,1174722,1,0,653,23,202,S206
Mk745,S221,1178898,1,0,1165,8,205,S206
Mk748,S220,1182730,1,0,954,4,201,S206
Mk751,S220,1187858,1,0,656,14,202,S206
Mk754,S220,1192066,1,0,1218,29,208,S206
Mk757,S220,1195971,1,0,1049,23,206,S206
Mk760,S220,1201363,1,0,826,13,207,S206
Mk763,S220,1204987,1,0,769,49,207,S206
Mk766,S220,1208675,1,0,770,35,208,S206
Mk769,S220,1213819,1,0,745,28,201,S206
Mk772,S220,1217763,1,0,1033,38,208,S206
Mk775,S220,1221587,1,0,913,6,203,S206
Mk778,S220,1226627,1,0,682,23,204,S206
Mk781,S220,1230171,1,0,645,20,206,S206
Mk784,S220,1233860,1,0,808,39,208,S206
Mk787,S221,1239067,1,0,859,16,208,S206
Mk790,S220,1242659,1,0,683,45,208,S206
Mk793,S220,1246611,1,0,871,47,201,S206
Mk796,S220,1251684,1,0,647,6,201,S206
Mk799,S220,1255444,1,0,707,11,201,S206
Mk802,S220,1259060,1,0,584,6,202,S206
Mk805,S220,1264100,1,0,562,30,207,S206
Mk808,S220,1267668,1,0,726,10,202,S206
Mk811,S220,1271260,1,0,588,46,202,S206
Mk814,S221,1276324,1,0,698,16,206,S206
Mk817,S220,1280036,1,0,807,8,207,S206
Mk820,S220,1283597,1,0,534,34,201,S206
Mk823,S220,1288564,1,0,504,31,207,S206
Mk826,S220,1292325,1,0,758,27,208,S206
Mk829,S220,1295949,1,0,676,42,207,S206
Mk832,S220,1301084,1,0,655,36,202,S206
Mk835,S220,1305245,1,0,1119,9,206,S206
Mk838,S220,1308797,1,0,543,50,202,S206
Mk841,S220,1313757,1,0,598,4,207,S206
Mk844,S220,1317757,1,0,1046,13,205,S206
Mk847,S221,1321589,1,0,878,5,205,S206
Mk850,S221,1327061,1,0,903,17,206,S206
Mk853,S220,1330837,1,0,815,23,201,S206
Mk856,S220,1334405,1,0,570,15,201,S206
Mk859,S220,1339341,1,0,567,37,202,S206
Mk862,S220,1343294,1,0,886,3,204,S206
Mk865,S220,1347158,1,0,800,7,202,S206
Mk868,S220,1352486,1,0,799,44,201,S206
Mk871,S220,1356142,1,0,757,8,201,S206
Mk874,S220,1359974,1,0,834,3,205,S206
Mk877,S220,1365166,1,0,728,13,208,S206
Mk880,S220,1368734,1,0,560,17,202,S206
Mk883,S220,1372278,1,0,615,12,202,S206
Mk886,S220,1377318,1,0,636,29,202,S206
Mk889,S220,1380991,1,0,629,20,201,S206
Mk892,S220,1384958,1,0,1024,47,208,S206
Mk895,S220,1390406,1,0,973,16,202,S206
Mk898,S220,1394246,1,0,868,21,207,S206
Mk901,S220,1398118,1,0,810,23,203,S206
Mk4,S221,265244,1,0,1220,16,203,S207
Mk7,S221,269378,1,0,1221,43,208,S207
Mk10,S221,273161,1,0,693,25,204,S207
Mk13,S221,278673,1,0,1151,6,206,S207
Mk16,S220,282305,1,0,628,10,206,S207
Mk19,S220,285857,1,0,580,3,202,S207
Mk22,S220,291009,1,0,590,17,201,S207
Mk25,S220,294641,1,0,626,36,208,S207
Mk28,S220,298161,1,0,632,6,208,S207
Mk31,S220,303138,1,0,628,26,207,S207
Mk34,S221,306769,1,0,682,38,208,S207
Mk37,S220,310210,1,0,543,19,202,S207
Mk40,S220,315105,1,0,514,34,201,S207
Mk43,S220,318673,1,0,625,44,208,S207
Mk46,S220,322218,1,0,697,9,205,S207
Mk49,S220,327290,1,0,572,7,201,S207
Mk52,S221,330834,1,0,475,25,207,S207
Mk55,S221,334586,1,0,712,18,207,S207
Mk58,S220,339962,1,0,808,1,208,S207
Mk61,S220,343418,1,0,475,33,207,S207
Mk64,S220,346843,1,0,480,42,202,S207
Mk67,S220,352074,1,0,665,7,205,S207
Mk70,S220,355594,1,0,672,22,203,S207
Mk73,S220,359298,1,0,680,11,202,S207
Mk76,S220,364162,1,0,464,21,201,S207
Mk79,S221,367634,1,0,524,2,203,S207
Mk82,S220,370979,1,0,500,49,207,S207
Mk85,S220,375994,1,0,616,49,208,S207
Mk88,S220,379594,1,0,708,33,208,S207
Mk91,S220,383251,1,0,659,27,208,S207
Mk94,S220,388283,1,0,538,10,207,S207
Mk97,S220,391643,1,0,514,1,202,S207
Mk100,S220,395139,1,0,490,20,202,S207
Mk103,S220,400371,1,0,681,3,203,S207
Mk106,S220,403963,1,0,682,8,208,S207
Mk109,S220,407355,1,0,528,4,205,S207
Mk112,S220,412443,1,0,520,22,201,S207
Mk115,S220,415820,1,0,471,38,207,S207
Mk118,S220,419235,1,0,522,11,207,S207
Mk121,S220,424491,1,0,691,24,206,S207
Mk124,S220,428195,1,0,652,40,208,S207
Mk127,S220,431628,1,0,561,7,203,S207
Mk130,S220,436748,1,0,555,38,202,S207
Mk133,S220,440100,1,0,456,43,207,S207
Mk136,S221,443404,1,0,414,12,208,S207
Mk139,S221,448412,1,0,548,25,203,S207
Mk142,S220,452100,1,0,664,25,201,S207
Mk145,S220,455564,1,0,602,44,202,S207
Mk148,S220,460876,1,0,751,23,203,S207
Mk151,S220,464308,1,0,582,10,201,S207
Mk154,S220,468124,1,0,808,8,206,S207
Mk157,S220,473396,1,0,798,37,202,S207
Mk160,S220,477404,1,0,927,3,206,S207
Mk163,S220,481093,1,0,741,1,201,S207
Mk166,S220,486261,1,0,708,3,205,S207
Mk169,S220,490029,1,0,814,6,204,S207
Mk172,S220,493453,1,0,572,45,201,S207
Mk175,S220,498805,1,0,846,12,203,S207
Mk178,S221,502509,1,0,858,9,204,S207
Mk181,S220,506637,1,0,1182,25,205,S207
Mk184,S220,512133,1,0,908,11,206,S207
Mk187,S220,515837,1,0,658,6,202,S207
Mk190,S220,519357,1,0,523,41,207,S207
Mk193,S221,524614,1,0,851,3,208,S207
Mk196,S220,528341,1,0,724,42,207,S207
Mk199,S220,531910,1,0,581,8,204,S207
Mk202,S220,537062,1,0,623,3,207,S207
Mk205,S220,540846,1,0,829,2,202,S207
Mk208,S220,544518,1,0,676,12,205,S207
Mk211,S220,549742,1,0,753,12,202,S207
Mk214,S220,553294,1,0,636,41,202,S207
Mk217,S220,556854,1,0,603,32,201,S207
